project_name,project_short,project_code,latitude,longitude,site_stage,site_type,site_subtype,site_commodities,tectonic_unit,resource_mt,resource_grade_gt,resource_oz,reserve_mt,reserve_grade_gt,reserve_oz,total_gold_oz,tenement_ids,tenement_types,tenement_holders,tenement_status,minedex_url
8 Mile Dam,8 Mile Dam,J05288,-30.645288,121.462217,Undeveloped,Deposit,Unspecified,"Au, Ag",Eastern Goldfields Superterrane,7.014346,1.392,313918.5,0.0,0.0,0.0,313918.5,P 26/3351,PROSPECTING LICENCE,NORTHERN STAR (KLV) PTY LTD,LIVE,https://minedex.dmirs.wa.gov.au/Web/projects/details/5b8675fc-712e-40fa-bbe3-1232939d7bbd
Abednego West,Abednego West,J01022,-28.833347,121.773913,Undeveloped,Deposit,Unspecified,"Au, Ag",Eastern Goldfields Superterrane,0.07,2.1,4726.2,0.0,0.0,0.0,4726.2,M 39/427; L 37/195,MINING LEASE; MISCELLANEOUS LICENCE,GOLDEN CLIFFS NL; NAVIGATOR MINING PTY LTD,LIVE; LIVE,https://minedex.dmirs.wa.gov.au/Web/projects/details/55b018f0-81a3-4ae6-900b-0049fdfd0a72
Abercromby,Abercromby,J05771,-26.820527,120.329551,Undeveloped,Deposit,Unspecified,"Au, Ag",Eastern Goldfields Superterrane,11.118,1.4496708,518187.0,0.0,0.0,0.0,518187.0,M 53/1095,MINING LEASE,NOVA ENERGY PTY LTD,LIVE,https://minedex.dmirs.wa.gov.au/Web/projects/details/f0b566d0-e06b-503d-f499-3d2f7580388b
Agnew - Emu,Agnew - Emu,J00098,-28.004485,120.505808,Operating,Mine,Decline,"Au, Ag",Yilgarn Craton,10.372,4.67261859,1558164.4,4.581,6.62311722,975468.3,2533632.7,M 36/53,MINING LEASE,AGNEW GOLD MINING COMPANY PTY LIMITED,LIVE,https://minedex.dmirs.wa.gov.au/Web/projects/details/7354e345-ca95-44ad-a82c-17e812f2cb91
Albury Heath,Albury Heath,J00002,-26.787357,118.574415,Operating,Mine,Unspecified,"Au, Ag",Youanmi Terrane,0.528,2.09,35478.9,0.0,0.0,0.0,35478.9,M 51/892,MINING LEASE,BIG BELL GOLD OPERATIONS PTY LTD,LIVE,https://minedex.dmirs.wa.gov.au/Web/projects/details/755834c6-06dd-4de1-9155-2768bb68aef6
Aldiss - Karonie,Aldiss - Karonie,J00184,-31.03367,122.561017,Shut,Mine,Openpit,"Au, Ag",Eastern Goldfields Superterrane,7.975,1.84369906,472727.8,0.404,1.9,24678.9,497406.7,M 28/43,MINING LEASE,SILVER LAKE (INTEGRA) PTY LIMITED,LIVE,https://minedex.dmirs.wa.gov.au/Web/projects/details/b20f396b-6282-45b2-ad93-ede776e611de
Alicia,Alicia,J01048,-28.666255,121.93931,Shut,Mine,Openpit,Au,Eastern Goldfields Superterrane,0.038,3.88763158,4749.6,0.0,0.0,0.0,4749.6,M 39/701,MINING LEASE,WESTCAPE NOMINEES PTY LTD,LIVE,https://minedex.dmirs.wa.gov.au/Web/projects/details/c374b56e-2826-457c-9bec-98f02f132542
Anglo Saxon - Trouser Legs,Anglo Saxon - Trouser Legs,J00424,-30.076767,122.731489,Care and Maintenance,Mine,Openpit,"Au, Ag",Eastern Goldfields Superterrane,4.917,2.83439089,448074.7,0.73,2.66,62430.2,510504.9,M 31/284,MINING LEASE,GEL RESOURCES PTY LTD,LIVE,https://minedex.dmirs.wa.gov.au/Web/projects/details/698002bd-8d52-4768-9abb-b91d5d758c01
Anthill ,Anthill ,J04003,-30.483628,121.006346,Undeveloped,Deposit,Unspecified,"Au, Ag",Eastern Goldfields Superterrane,1.42,1.71978873,78515.2,0.0,0.0,0.0,78515.2,M 16/531,MINING LEASE,NORTHERN STAR RESOURCES LTD,LIVE,https://minedex.dmirs.wa.gov.au/Web/projects/details/a529b479-b107-4339-8446-a0c2879ec49b
Aphrodite,Aphrodite,J03406,-30.180871,121.225082,Proposed,Mine,Openpit,"Au, Ag",Eastern Goldfields Superterrane,22.8,2.18464912,1601426.4,0.0,0.0,0.0,1601426.4,M 24/720,MINING LEASE,APHRODITE GOLD PTY LTD,LIVE,https://minedex.dmirs.wa.gov.au/Web/projects/details/ef0e385f-b888-4889-90f2-2e2a28e5fb12
Apollo Hill,Apollo Hill,J02118,-29.153011,121.675721,Proposed,Mine,Openpit,"Au, Ag",Eastern Goldfields Superterrane,137.0,0.51105109,2250999.1,104.6,0.47183556,1586765.6,3837764.7,M 31/486,MINING LEASE,SATURN METALS LIMITED,LIVE,https://minedex.dmirs.wa.gov.au/Web/projects/details/d8bbec0e-5789-4f51-af10-7a3816a836e6
Ashburton / Kalamazoo,Ashburton,J02216,-23.431998,117.900012,Shut,Mine,Openpit,"Au, Ag",Ashburton Basin,17.958,2.84632153,1643358.7,0.0,0.0,0.0,1643358.7,M 52/639,MINING LEASE,KALAMAZOO RESOURCES LIMITED,LIVE,https://minedex.dmirs.wa.gov.au/Web/projects/details/6443b99a-8595-4a23-9ea2-5192cf2937c7
Austin - Quinns Base Metals,Austin - Quinns,J04877,-27.139847,118.513827,Undeveloped,Deposit,Unspecified,"Cu, Zn, Ag, Au",Youanmi Terrane,1.484422,0.23641442,11282.9,0.0,0.0,0.0,11282.9,E 51/1157,EXPLORATION LICENCE,CNN INVESTMENTS PTY LTD,LIVE,https://minedex.dmirs.wa.gov.au/Web/projects/details/6ddffe01-43aa-40ba-97e4-7fecbd402b7c
Baden Powell / Horizon,Baden Powell,J05474,-30.239138,121.222793,Shut,Mine,Openpit,"Au, Ag",Eastern Goldfields Superterrane,0.595,1.2,22955.6,0.0,0.0,0.0,22955.6,M 24/959,MINING LEASE,BLACK MOUNTAIN GOLD PTY LIMITED,LIVE,https://minedex.dmirs.wa.gov.au/Web/projects/details/769439f5-5792-44e6-9f2e-69a771a4c8e6
Badja,Badja,J01716,-28.587298,116.86833,Shut,Mine,Openpit,"Au, Ag",Youanmi Terrane,0.5759,2.18440181,40445.5,0.015,6.1,2941.8,43387.3,M 59/739,MINING LEASE,CORUSCANT MINERALS PTY LTD,LIVE,https://minedex.dmirs.wa.gov.au/Web/projects/details/1104c648-618c-4632-a54e-d5ced3208696
Bali,Bali,J01536,-23.406107,116.933308,Undeveloped,Deposit,Unspecified,"Pb, Au, Cu, Ag, Zn, U",Blair Basin,0.095,0.2,610.9,0.0,0.0,0.0,610.9,E 08/2894,EXPLORATION LICENCE,NORWEST MINERALS LIMITED,LIVE,https://minedex.dmirs.wa.gov.au/Web/projects/details/2af33503-e627-48b9-96da-66a4c831d79d
Bamboo - Strattons,Bamboo - Strattons,J06908,-20.893056,120.191606,Undeveloped,Deposit,Unspecified,"Au, Ag",Northeast Pilbara Sub-basin,0.3,0.31,2990.0,0.0,0.0,0.0,2990.0,E 45/3724,EXPLORATION LICENCE,NULLAGINE GOLD PTY LTD,LIVE,https://minedex.dmirs.wa.gov.au/Web/projects/details/f5067327-d6d0-32be-8e21-1a2bfba1a454
Bamboo Creek Gold,Bamboo Creek,J00008,-21.093721,119.363367,Care and Maintenance,Mine,Openpit,"Au, Ag",Warrawoona  Large Igneous Province,17.69,1.12927077,642268.1,0.636,3.2995283,67468.2,709736.3,M 45/328,MINING LEASE,HAOMA MINING NL,LIVE,https://minedex.dmirs.wa.gov.au/Web/projects/details/76438ca8-3729-472c-bc5c-c47b50e44881
Barrambie Gold,Barrambie,J00013,-27.367768,119.074608,Undeveloped,Deposit,Unspecified,Au,Youanmi Terrane,0.285,1.60701754,14725.0,0.0,0.0,0.0,14725.0,E 57/769-I,EXPLORATION LICENCE,AVANTI EXPLORATION PTY LTD,LIVE,https://minedex.dmirs.wa.gov.au/Web/projects/details/2457235c-f2cb-4b4a-83c5-7edc2189eb67
Battler / IMD,Battler,J04801,-31.346346,119.389607,Care and Maintenance,Mine,Openpit,"Au, Ag",Youanmi Terrane,0.452,2.86106195,41577.3,0.142,3.78450704,17277.8,58855.1,M 77/1285,MINING LEASE,GEKO EXPLORE PTY LTD,LIVE,https://minedex.dmirs.wa.gov.au/Web/projects/details/e3c20726-f7a8-46fa-a2fd-f5d29ca5a0c3
Beatons Creek JV,Beatons Creek,J04143,-21.870319,120.101608,Operating,Mine,Openpit,Au,Northeast Pilbara Sub-basin,4.58,2.1180131,311877.9,0.0,0.0,0.0,311877.9,M 46/11,MINING LEASE,BEATONS CREEK GOLD PTY LTD,LIVE,https://minedex.dmirs.wa.gov.au/Web/projects/details/e0d2d1b8-9cb0-4848-9b86-7ebc3badbdff
Bellchambers - Sandstone,Bellchambers,J00016,-28.162015,119.140308,Undeveloped,Deposit,Unspecified,"Au, Ag",Youanmi Terrane,0.762,1.27471129,31228.9,0.0,0.0,0.0,31228.9,M 57/671,MINING LEASE,"LEGENDRE, BRUCE ROBERT",LIVE,https://minedex.dmirs.wa.gov.au/Web/projects/details/a8d5baa5-1ed2-45ae-8f39-5d96a607cde4
Bellevue,Bellevue,J04770,-27.636059,120.55763,Operating,Mine,Decline,"Au, Ag",Eastern Goldfields Superterrane,10.67,8.98900656,3083660.4,8.56,4.67675234,1287089.0,4370749.4,M 36/25,MINING LEASE,GOLDEN SPUR RESOURCES PTY LTD,LIVE,https://minedex.dmirs.wa.gov.au/Web/projects/details/8e4c069a-0a2b-44ad-92fc-50bdc54f753e
Black Jack / Duffy,Black Jack,J04148,-29.743784,121.072719,Shut,Mine,Openpit,"Au, Ag",Eastern Goldfields Superterrane,0.255846,1.95478647,16079.3,0.0,0.0,0.0,16079.3,M 29/322,MINING LEASE,"DUFFY, MICHAEL PETER",LIVE,https://minedex.dmirs.wa.gov.au/Web/projects/details/4afe2e51-a224-4b2e-a773-957b9451a347
Blue Bar,Blue Bar,J01290,-21.398997,119.704211,Operating,Mine,Openpit,Au,Marble Bar Sub-basin,0.3,1.888,18210.2,0.0,0.0,0.0,18210.2,M 45/906,MINING LEASE,HAOMA MINING NL,LIVE,https://minedex.dmirs.wa.gov.au/Web/projects/details/5532baa3-a828-4103-92be-d6d81c8d62e2
Blue Spec / Novo,Blue Spec,J00126,-21.820903,120.273032,Proposed,Mine,Shaft,"Au, Sb, Ag",Mosquito Creek Basin,0.242,24.35289256,189476.9,0.2,11.2,72017.6,261494.5,M 46/115,MINING LEASE,CALIDUS BLUE SPEC PTY LTD,LIVE,https://minedex.dmirs.wa.gov.au/Web/projects/details/ad35ae61-86ef-4dc6-bbf5-40def24f5514
Boddington Gold,Boddington,J00026,-32.753064,116.35753,Operating,Mine,Openpit,"Au, Cu, As, Bi, Ag",South West Terrane,248.2,0.53828767,4295430.0,559.7,0.60403252,10869412.2,15164842.2,M 70/24,MINING LEASE,JAPAN ALUMINA ASSOCIATES (AUSTRALIA) PTY LTD,LIVE,https://minedex.dmirs.wa.gov.au/Web/projects/details/acb22efa-42d5-4321-a4db-6509349df262
Boomerang Tailings,Boomerang Tailings,J01289,-28.788085,122.65221,Shut,Infrastructure,Tailings storage facility,Au,Burtville Terrane,0.015,2.0,964.5,0.0,0.0,0.0,964.5,L 38/173; M 38/1281,MISCELLANEOUS LICENCE; MINING LEASE,LAVERTON GOLD PTY LTD; LAVERTON GOLD PTY LTD,LIVE; LIVE,https://minedex.dmirs.wa.gov.au/Web/projects/details/3abc41d8-a36e-4980-868e-5657e881e627
Boorara / Horizon,Boorara,J02851,-30.803847,121.641924,Operating,Mine,Openpit,"Au, Ag",Eastern Goldfields Superterrane,10.53,1.26875594,429533.4,1.2391,1.24027843,49410.1,478943.5,M 26/29,MINING LEASE,POLYMETALS (WA) PTY LTD,LIVE,https://minedex.dmirs.wa.gov.au/Web/projects/details/95529908-32da-4ade-8418-a98fbf7c02c6
Bottle Creek,Bottle Creek,J00028,-29.178289,120.456428,Operating,Mine,Openpit,"Au, Ag",Eastern Goldfields Superterrane,6.8685,1.67686758,370297.8,4.168,1.78234165,238841.1,609138.9,M 29/150,MINING LEASE,AURENNE MT IDA PTY LTD,LIVE,https://minedex.dmirs.wa.gov.au/Web/projects/details/4e0d737b-a8f0-45d0-ac41-25e6d09cb180
Brightstar / Stone,Brightstar,J00233,-28.724517,122.725654,Proposed,Mine,Openpit,"Au, Ag",Burtville Terrane,3.334,1.93137373,207024.8,0.0,0.0,0.0,207024.8,M 38/968,MINING LEASE,DESERT EXPLORATION PTY LTD,LIVE,https://minedex.dmirs.wa.gov.au/Web/projects/details/bd52e77e-87a5-4f9c-bb76-65a2a6cd0626
British Hill / IMD,British Hill,J05748,-31.845886,119.608911,Proposed,Mine,Openpit,"Au, Ag",Youanmi Terrane,1.025,1.65442146,54520.6,0.0,0.0,0.0,54520.6,M 77/1256,MINING LEASE,IMD GOLD MINES PROPRIETARY LIMITED,LIVE,https://minedex.dmirs.wa.gov.au/Web/projects/details/3472b68e-a781-22e4-f0e5-a5e8ba564e86
British King,British King,J00924,-27.939629,121.243194,Care and Maintenance,Mine,Shaft,"Au, Ag",Eastern Goldfields Superterrane,0.263,4.50722433,38111.4,0.0,0.0,0.0,38111.4,M 37/30,MINING LEASE,CENTRAL IRON ORE LTD,LIVE,https://minedex.dmirs.wa.gov.au/Web/projects/details/e1da7a01-df98-4aa1-bf73-abbafce6ae3f
Broads Dam Dumps,Broads Dam Dumps,J01879,-30.566178,121.11201,Shut,Mine,Tailings storage facility,Au,Yilgarn Craton,0.33,1.05454545,11188.4,0.0,0.0,0.0,11188.4,M 16/534,MINING LEASE,HAYES MINING PTY LTD,LIVE,https://minedex.dmirs.wa.gov.au/Web/projects/details/01711a04-9037-4116-9c7f-2b97f547cbd1
Broads Dam South - Blue Funnel,Broads Dam South - Blue Funnel,J00023,-30.583204,121.125146,Shut,Mine,Unspecified,"Au, Ag",Yilgarn Craton,0.37,2.82918919,33655.4,0.0,0.0,0.0,33655.4,M 16/19,MINING LEASE,CEREP PTY LTD,LIVE,https://minedex.dmirs.wa.gov.au/Web/projects/details/897f5c41-1bed-4d53-8e9c-5c8f1d69f4aa
Bronzewing South / Yandal,Bronzewing South,J02791,-27.318681,120.894942,Undeveloped,Deposit,Unspecified,"Au, Ag",Eastern Goldfields Superterrane,1.48,1.15,54720.5,0.0,0.0,0.0,54720.5,E 36/869,EXPLORATION LICENCE,CARNEGIE EXPLORATION PTY LTD,LIVE,https://minedex.dmirs.wa.gov.au/Web/projects/details/15860aa7-7c4e-4789-944d-c6f8e58bbe25
Bruno-Lewis,Bruno-Lewis,J06760,-28.786473,121.587786,Proposed,Mine,Openpit,"Au, Ag",Eastern Goldfields Superterrane,11.811,1.35601558,514922.4,5.0,1.0,160753.5,675675.9,M 37/277,MINING LEASE,REDCLIFFE PROJECT PTY LTD,LIVE,https://minedex.dmirs.wa.gov.au/Web/projects/details/d44796b3-dc22-4971-33a9-497859371f77
Bryah Basin - Catalyst / Alchemy,Bryah Basin,J00361,-25.705794,118.845193,Undeveloped,Deposit,Unspecified,"Au, Ag","Yilgarn Craton, Marymia Inlier",2.235,1.57248322,112993.6,0.0,0.0,0.0,112993.6,M 52/1049,MINING LEASE,ALCHEMY RESOURCES (THREE RIVERS) PTY LTD,LIVE,https://minedex.dmirs.wa.gov.au/Web/projects/details/cffc0922-c4c0-4f14-a8cf-0ba369f1eb80
Bulgera Creek,Bulgera Creek,J04985,-25.109975,119.823412,Shut,Mine,Openpit,"Au, Ag",Eastern Goldfields Superterrane,23.81,0.65353213,500284.2,0.0,0.0,0.0,500284.2,M 52/1085,MINING LEASE,NORWEST MINERALS LIMITED,LIVE,https://minedex.dmirs.wa.gov.au/Web/projects/details/86f94cf6-7d32-4edf-ba06-db9fa4b395ff
Bullabulling,Bullabulling,J00033,-31.006446,120.905612,Shut,Mine,Openpit,"Au, Ag",Eastern Goldfields Superterrane,135.7,1.03666175,4522799.7,0.0,0.0,0.0,4522799.7,M 15/503,MINING LEASE,BULLABULLING OPERATIONS PTY LTD,LIVE,https://minedex.dmirs.wa.gov.au/Web/projects/details/8ca4a884-4fb9-4ecf-a47d-90e6c66d6547
Bullabulling North,Bullabulling North,J01519,-30.862362,120.901857,Operating,Mine,Openpit,"Au, Ag",Eastern Goldfields Superterrane,1.417,1.28009174,58317.8,1.285,1.09696498,45319.6,103637.4,M 15/621,MINING LEASE,BEACON MINING PTY LTD,LIVE,https://minedex.dmirs.wa.gov.au/Web/projects/details/1aa5366f-ff79-4fa8-a0dc-bd6e1653c968
Bulong - Jarvis,Bulong - Jarvis,J01897,-30.753146,121.791305,Care and Maintenance,Mine,Openpit,"Au, Ag",Eastern Goldfields Superterrane,0.179,3.1,17840.4,0.0,0.0,0.0,17840.4,M 25/356,MINING LEASE,BOULDER INVESTMENTS GROUP PTY LTD,LIVE,https://minedex.dmirs.wa.gov.au/Web/projects/details/18046edc-b21a-4133-91ae-cf7a3df1d00f
Bulong - Taurus Eluvials,Bulong - Taurus Eluvials,J00037,-30.718107,121.844813,Undeveloped,Deposit,Unspecified,Au,Eastern Goldfields Superterrane,0.5,1.58,25399.1,0.0,0.0,0.0,25399.1,M 25/19,MINING LEASE,ARDEA EXPLORATION PTY LTD,LIVE,https://minedex.dmirs.wa.gov.au/Web/projects/details/8ef798cd-5767-48b0-a5a2-542dca9e22d9
Bulong South Gold,Bulong South,J03557,-30.816281,121.762912,Proposed,Mine,Decline,"Au, Ag",Eastern Goldfields Superterrane,1.36,1.77492647,77608.6,0.135,4.1,17795.4,95404.0,M 25/333,MINING LEASE,BLACK MOUNTAIN GOLD PTY LIMITED,LIVE,https://minedex.dmirs.wa.gov.au/Web/projects/details/8ad693e1-f6a9-4e68-9647-764da145957a
Bulong Taurus Gold,Bulong Taurus,J05550,-30.715336,121.84519,Undeveloped,Deposit,Unspecified,"Au, Ag",Eastern Goldfields Superterrane,3.61,1.19,138116.2,0.0,0.0,0.0,138116.2,M 25/19,MINING LEASE,ARDEA EXPLORATION PTY LTD,LIVE,https://minedex.dmirs.wa.gov.au/Web/projects/details/e85f1fc5-18f2-4d40-b204-d1c53324eb96
Burbanks / REG,Burbanks,J00069,-31.024473,121.139869,Operating,Mine,Decline,"Au, Ag",Eastern Goldfields Superterrane,6.0587,2.41374717,470177.3,0.0,0.0,0.0,470177.3,M 15/161,MINING LEASE,GREENSTONE RESOURCES PTY LIMITED,LIVE,https://minedex.dmirs.wa.gov.au/Web/projects/details/d82345de-8d87-4374-8d5d-7984f8f1ea14
Burracoppin Gold / Askari,Burracoppin Au / Askari,J00922,-31.507116,118.554868,Undeveloped,Deposit,Unspecified,"Au, Ag",South West Terrane,2.143,1.19608959,82409.3,0.0,0.0,0.0,82409.3,E 70/5049,EXPLORATION LICENCE,FIRST WESTERN GOLD PTY LTD,LIVE,https://minedex.dmirs.wa.gov.au/Web/projects/details/0018de36-1f0a-4129-bbcb-8d44c0727a13
Bustler Well / Macdonald,Bustler Well,J04807,-24.797696,116.954913,Undeveloped,Deposit,Unspecified,"Au, Ag",Gascoyne Province,0.015,7.43,3583.2,0.0,0.0,0.0,3583.2,E 52/3051,EXPLORATION LICENCE,BUSTLER WELL GOLD PTY LTD,LIVE,https://minedex.dmirs.wa.gov.au/Web/projects/details/0b8c2f36-67ff-4f4c-8897-5bdf01916a47
Butcher Well,Butcher Well,J05455,-29.245017,122.319242,Shut,Mine,Openpit,"Au, Ag",Eastern Goldfields Superterrane,3.05,3.48927869,342157.4,0.0,0.0,0.0,342157.4,M 39/230,MINING LEASE,ANGLOGOLD ASHANTI AUSTRALIA LIMITED,LIVE,https://minedex.dmirs.wa.gov.au/Web/projects/details/85478bc8-1938-405a-88b8-2ccba2fddaa6
Butchers Creek Gold,Butchers Creek Gold,J01556,-18.347277,127.815407,Shut,Mine,Openpit,"Au, Ag","Lamboo Province, Eastern Zone",5.63,1.98886323,360001.0,0.0,0.0,0.0,360001.0,M 80/651; M 80/660,MINING LEASE; MINING LEASE,HORROCKS ENTERPRISES PTY LTD; BUTCHERS CREEK METALS PTY LTD,PENDING; PENDING,https://minedex.dmirs.wa.gov.au/Web/projects/details/4cd74d5c-9f24-45c7-b8de-e5a65991c646
Cadonia,Cadonia,J01490,-31.425094,119.468459,Shut,Mine,Openpit,Au,Youanmi Terrane,0.004,11.7,1504.7,0.0,0.0,0.0,1504.7,M 77/947,MINING LEASE,SALVATION GOLD PTY LTD,LIVE,https://minedex.dmirs.wa.gov.au/Web/projects/details/82f91f79-3d69-4bcb-95f9-14177ab211b9
Caledonian - Summit,Caledonian - Summit,J02501,-31.007307,121.919711,Undeveloped,Deposit,Unspecified,"Au, Ag",Eastern Goldfields Superterrane,0.023,4.1,3031.8,0.0,0.0,0.0,3031.8,M 26/325,MINING LEASE,SILVER LAKE RESOURCES LIMITED,LIVE,https://minedex.dmirs.wa.gov.au/Web/projects/details/5d169927-04fe-4042-b19d-c7c5217715c4
Caravel Copper,Caravel,J03961,-30.968715,116.618928,Undeveloped,Deposit,Unspecified,"Cu, Mo, Ag, Au",Yilgarn Craton granites,1254.7,0.02230844,899911.0,0.0,0.0,0.0,899911.0,M 70/1425,MINING LEASE,CARAVEL OPERATIONS PTY LTD,LIVE,https://minedex.dmirs.wa.gov.au/Web/projects/details/0b98bf2c-b076-49a1-993b-b11eacebf5e9
Carlow Castle / Artemis,Carlow Castle,J02456,-20.811957,117.066012,Undeveloped,Deposit,Unspecified,"Au, Ag, Cu, Co",Karratha Terrane,8.74,1.35114416,379667.6,0.0,0.0,0.0,379667.6,E 47/1797-I,EXPLORATION LICENCE,KML NO 2 PTY LTD,LIVE,https://minedex.dmirs.wa.gov.au/Web/projects/details/62d236b3-1b11-49e0-9759-2c1930b357e9
Carnage,Carnage,J01238,-30.380735,120.936247,Shut,Mine,Openpit,Au,Eastern Goldfields Superterrane,0.005,14.03,2255.4,0.0,0.0,0.0,2255.4,M 24/32,MINING LEASE,GOLDTIMERS PROSPECTING PTY LTD,LIVE,https://minedex.dmirs.wa.gov.au/Web/projects/details/611f6512-dc38-4055-b9ed-fceed58970c7
Carosue Dam - Khartoum,Carosue Dam - Khartoum,J02241,-30.151397,122.347119,Operating,Infrastructure,Road,"Au, Ag",Eastern Goldfields Superterrane,66.057,2.10224806,4464709.8,15.894,1.81177174,925821.2,5390531.0,L 28/24; M 28/269,MISCELLANEOUS LICENCE; MINING LEASE,NORTHERN STAR (CAROSUE DAM) PTY LTD; NORTHERN STAR (CAROSUE DAM) PTY LTD,LIVE; LIVE,https://minedex.dmirs.wa.gov.au/Web/projects/details/5d63545d-2979-4c1f-8c61-350bd3b5990b
Central Goldfields,Central Goldfields,J05876,-28.810217,121.273868,Undeveloped,Deposit,Unspecified,Au,Eastern Goldfields Superterrane,0.291,1.54237113,14430.2,0.0,0.0,0.0,14430.2,M 37/1349,MINING LEASE,U RESOURCE PTY LTD,LIVE,https://minedex.dmirs.wa.gov.au/Web/projects/details/568fc9ad-d02c-68e6-14bc-75f1f02977f2
Central Norseman,Central Norseman,J00056,-32.123247,121.808097,Operating,Mine,Openpit,"Au, Ag",Eastern Goldfields Superterrane,41.0665,3.39306293,4479917.7,12.047,1.56129576,604720.3,5084638.0,M 63/156,MINING LEASE,CENTRAL NORSEMAN GOLD CORPORATION PTY LTD,LIVE,https://minedex.dmirs.wa.gov.au/Web/projects/details/11cff133-70ad-4c27-8f58-a14f8290f3f5
Central Sandstone / Aurumin,Central Sandstone,J05290,-28.073667,119.26971,Shut,Mine,Openpit,"Au, Ag",Youanmi Terrane,18.4453,1.49090153,884148.3,0.0,0.0,0.0,884148.3,M 57/128-I,MINING LEASE,SANDSTONE OPERATIONS PTY LTD,LIVE,https://minedex.dmirs.wa.gov.au/Web/projects/details/fb668497-ccc4-4272-9533-c7525b591ed2
Cheritons Find,Cheritons Find,J01717,-31.832595,119.667612,Undeveloped,Deposit,Unspecified,"Au, Ag",Youanmi Terrane,0.1,1.2,3858.1,0.0,0.0,0.0,3858.1,E 77/1793,EXPLORATION LICENCE,BARTO GOLD MINING PTY LTD,LIVE,https://minedex.dmirs.wa.gov.au/Web/projects/details/f074f31d-f2c3-498c-acd7-82cf3611a966
Citadel,Citadel,J02281,-20.771948,122.201825,Undeveloped,Deposit,Unspecified,"Au, Cu, Ag",Anketell Shelf,127.1,0.7036664,2875430.0,0.0,0.0,0.0,2875430.0,E 45/2877,EXPLORATION LICENCE,RIO TINTO WINU PTY LIMITED,LIVE,https://minedex.dmirs.wa.gov.au/Web/projects/details/c8de5fc5-baa6-4102-92f7-408023acd5bf
Clampton,Clampton,J01137,-29.947691,119.110461,Care and Maintenance,Mine,Openpit,"Au, Ag",Youanmi Terrane,0.005,5.464,878.4,0.0,0.0,0.0,878.4,M 77/641,MINING LEASE,AU KT PTY LTD,LIVE,https://minedex.dmirs.wa.gov.au/Web/projects/details/f2de42a2-eaec-4973-aa04-66ce6e1d6e5f
Colour Dam,Colour Dam,J02983,-30.55243,122.29983,Shut,Mine,Openpit,Au,Eastern Goldfields Superterrane,0.307,1.7,16779.5,0.0,0.0,0.0,16779.5,M 28/389,MINING LEASE,KURNALPI GOLD PTY LTD,PENDING,https://minedex.dmirs.wa.gov.au/Web/projects/details/f68a9b73-e28c-4ad0-8a0e-c93011d1c4da
Comet / Valiant,Comet,J07167,-27.540306,118.040209,Care and Maintenance,Mine,Openpit,"Au, Ag",Youanmi Terrane,4.075,2.43138969,318546.3,0.0,0.0,0.0,318546.3,M 21/72,MINING LEASE,BIG BELL GOLD OPERATIONS PTY LTD,LIVE,https://minedex.dmirs.wa.gov.au/Web/projects/details/4f938d28-9d90-38b2-71aa-cdb9d9f72fec
Comet Vale - Sand Queen,Comet Vale -Queen,J00066,-29.95323,121.128471,Undeveloped,Deposit,Unspecified,Au,Eastern Goldfields Superterrane,8.0002,3.74704482,963785.0,0.103,2.7,8941.1,972726.1,M 29/52,MINING LEASE,ORMINEX WEST PTY LTD,LIVE,https://minedex.dmirs.wa.gov.au/Web/projects/details/74d4315b-b7b4-4d69-94c4-57ca28a91db7
Coodardy - Behring Well,Coodardy - Behring Well,J00067,-27.155938,117.806712,Undeveloped,Deposit,Unspecified,"Au, Ag",Youanmi Terrane,0.151,2.3,11165.9,0.0,0.0,0.0,11165.9,M 20/455,MINING LEASE,"BRAND, ADAM",LIVE,https://minedex.dmirs.wa.gov.au/Web/projects/details/73802715-5cab-4c16-ab45-5b8d996b3bb3
Cookes Hill,Cookes Hill,J02672,-20.730406,118.66051,Undeveloped,Deposit,Unspecified,"Au, Ag",Sisters Supersuite,1.5,1.18,56906.7,0.0,0.0,0.0,56906.7,E 45/5213; E 45/7209,EXPLORATION LICENCE; EXPLORATION LICENCE,HAOMA MINING NL; NORTHERN STAR (PILBARA) PTY LTD,PENDING; PENDING,https://minedex.dmirs.wa.gov.au/Web/projects/details/765f541e-ba66-4452-92ad-6e1a4b27723c
Coolgardie Gold,Coolgardie - MacPhersons,J00229,-31.016562,121.198854,Operating,Mine,Openpit,"Au, Ag",Eastern Goldfields Superterrane,0.995,1.19648241,38275.4,0.84,1.17214286,31655.6,69931.0,M 15/40,MINING LEASE,MACPHERSONS REWARD PTY LTD,LIVE,https://minedex.dmirs.wa.gov.au/Web/projects/details/aa0df2e2-0171-4b7e-b1b3-7e7251347e9b
Coolgardie Gold / Focus,Coolgardie,J00014,-30.969516,121.18281,Shut,Mine,Openpit,"Au, Ag",Eastern Goldfields Superterrane,46.2119,1.84409884,2739860.5,6.192,2.08484819,415045.6,3154906.1,M 15/646,MINING LEASE,FOCUS MINERALS LTD,LIVE,https://minedex.dmirs.wa.gov.au/Web/projects/details/8a006330-184f-42f1-bd93-7e013be74654
Copper Range,Copper Range,J03390,-23.457166,120.148013,Undeveloped,Deposit,Unspecified,"Cu, Au, Ag","Pilbara Craton, Sylvania Inlier",0.708,0.26,5918.3,0.0,0.0,0.0,5918.3,M 52/211-I,MINING LEASE,WARWICK RESOURCES PTY LTD,LIVE,https://minedex.dmirs.wa.gov.au/Web/projects/details/e1cb062d-ad9a-405d-b24d-b93820ccfe75
Corinthia / Corinthian Mining,Corinthia,J04602,-31.12464,119.221597,Proposed,Mine,Openpit,"Au, Ag",Youanmi Terrane,4.4,2.1,297072.5,1.54,1.9,94072.9,391145.4,M 77/534,MINING LEASE,CYGNET GOLD PTY LTD,LIVE,https://minedex.dmirs.wa.gov.au/Web/projects/details/5bd2af86-8035-4a70-ae43-b42d61aef1ab
Cork Tree Well - Delta,Cork Tree Well - Delta,J00075,-28.338636,122.404413,Shut,Mine,Openpit,"Au, Ag",Eastern Goldfields Superterrane,6.462,1.40204271,291285.3,2.137,1.5,103059.1,394344.4,M 38/346,MINING LEASE,BRIGHTSTAR RESOURCES LIMITED,LIVE,https://minedex.dmirs.wa.gov.au/Web/projects/details/cc3cd93c-32d8-4502-9018-378e8fa8598e
Coyote - Western Tanami,Coyote - Western Tanami,J02414,-19.898715,128.831705,Care and Maintenance,Mine,Decline,"Au, Ag",Tanami Basin,3.662,4.13012015,486263.3,0.0,0.0,0.0,486263.3,M 80/559,MINING LEASE,BLACK CAT (COYOTE) PTY LTD,LIVE,https://minedex.dmirs.wa.gov.au/Web/projects/details/e624adc2-9904-42da-9774-082d0c0cb141
Crawfords,Crawfords,J00434,-28.588926,122.41031,Undeveloped,Deposit,Unspecified,"Au, Ag",Eastern Goldfields Superterrane,0.132,1.83,7766.3,0.0,0.0,0.0,7766.3,P 38/4348,PROSPECTING LICENCE,LAVERTON GOLD PTY LTD,LIVE,https://minedex.dmirs.wa.gov.au/Web/projects/details/e0dc4fce-4fb1-4756-bee0-a982f276f873
Credo / Singh Sandhu,Credo,J00122,-30.426016,120.755998,Undeveloped,Deposit,Unspecified,"Au, Ag",Eastern Goldfields Superterrane,0.092925,1.01,3017.5,0.0,0.0,0.0,3017.5,E 16/679; E 16/685,EXPLORATION LICENCE; EXPLORATION LICENCE,"RAKETA RESOURCES PTY LTD; ASHCROFT, SEAN CAMERON",PENDING; PENDING,https://minedex.dmirs.wa.gov.au/Web/projects/details/664b6446-e6ce-45d7-ac07-87a01f96bed0
Credo Well,Credo Well,J05012,-30.459342,121.266963,Undeveloped,Deposit,Unspecified,"Au, Ag",Eastern Goldfields Superterrane,0.289,2.40795848,22373.7,0.0,0.0,0.0,22373.7,P 24/4418,PROSPECTING LICENCE,ZULEIKA GOLD LIMITED,LIVE,https://minedex.dmirs.wa.gov.au/Web/projects/details/4eecae3f-8c0e-4e2d-b71b-46f86ddc2778
Cuddingwarra - Morning Star,Cuddingwarra - Morning Star,J01557,-27.316157,117.801814,Shut,Infrastructure,Tailings storage facility,"Au, Ag",Youanmi Terrane,0.0,0.0,0.0,0.01,5.0,1607.5,1607.5,P 20/2350,PROSPECTING LICENCE,BIG BELL GOLD OPERATIONS PTY LTD,LIVE,https://minedex.dmirs.wa.gov.au/Web/projects/details/f515a567-298b-4c20-9b7b-7e308439b29d
Cue Gold,Cue Gold,J02146,-27.692583,117.832834,Operating,Mine,Openpit,"Au, Ag",Youanmi Terrane,10.8068,2.04955769,712111.0,3.82,2.03633508,250093.9,962204.9,M 21/106,MINING LEASE,MUSGRAVE MINERALS LIMITED,LIVE,https://minedex.dmirs.wa.gov.au/Web/projects/details/ca0ba669-5f6a-4bf2-9d57-889619abde67
Cue Gold - Central Murchison,Cue - Central Murchison,J00017,-27.318646,117.655367,Operating,Mine,Decline,"Au, Ag",Youanmi Terrane,80.176,2.33357052,6015278.6,26.057,2.20025905,1843268.8,7858547.4,M 20/17,MINING LEASE,BIG BELL GOLD OPERATIONS PTY LTD,LIVE,https://minedex.dmirs.wa.gov.au/Web/projects/details/cef0ec0a-3407-465e-ac05-b0a564d58213
Cue One,Cue One,J02773,-27.416808,117.899409,Undeveloped,Deposit,Unspecified,"Au, Ag",Youanmi Terrane,0.17,4.0,21862.5,0.0,0.0,0.0,21862.5,M 20/522,MINING LEASE,"BOX, PHILIP ARTHUR",LIVE,https://minedex.dmirs.wa.gov.au/Web/projects/details/6b13cd40-d414-4633-9fbb-0ddbfbc051bd
Cumulus VHMS,Cumulus,J01532,-26.705615,118.366908,Undeveloped,Deposit,Unspecified,"Au, Cu, Ag",Youanmi Terrane,0.11,2.87,10150.0,0.0,0.0,0.0,10150.0,E 51/1958,EXPLORATION LICENCE,NUCLEUS CAPITAL PROPRIETARY LIMITED,LIVE,https://minedex.dmirs.wa.gov.au/Web/projects/details/1e89dd3c-3d84-4657-bdf9-8a5be217ed42
Cygnet Gold,Cygnet Gold,J06925,-31.231594,119.319783,Shut,Mine,Openpit,"Au, Ag",Youanmi Terrane,11.2433,3.85501872,1393512.0,0.15,0.7,3375.8,1396887.8,M 77/90,MINING LEASE,CYGNET GOLD PTY LTD,LIVE,https://minedex.dmirs.wa.gov.au/Web/projects/details/1d811150-4313-6c11-b744-8b694ddc3b96
Dalgaranga - Gilbeys,Dalgaranga - Gilbeys,J02013,-27.840912,117.270904,Operating,Mine,Openpit,"Au, Ag",Yilgarn Craton granites,16.109,5.10755478,2645282.4,1.657,1.0061557,53601.6,2698884.0,M 59/749,MINING LEASE,GNT RESOURCES PTY LTD,LIVE,https://minedex.dmirs.wa.gov.au/Web/projects/details/15df754b-2e4d-449f-8c98-6a9cfe4086e5
Dante Cu-Ti-PGE-Au-V,Dante,J05383,-25.809762,127.647236,Undeveloped,Deposit,Unspecified,"Cu, Ti, PGE, Pt, Pd, Au, V, Ni",Warakurna Large Igneous Province,148.0,0.08567568,407670.9,0.0,0.0,0.0,407670.9,E 69/3401,EXPLORATION LICENCE,97992001 PTY LTD,LIVE,https://minedex.dmirs.wa.gov.au/Web/projects/details/3ad90403-c66d-42d2-bcda-3a1ea2e2698c
Darlot,Darlot,J00082,-27.887515,121.268908,Operating,Mine,Decline,"Au, Ag",Eastern Goldfields Superterrane,17.266,3.38898992,1881275.7,1.605,2.79065421,144003.0,2025278.7,M 37/155,MINING LEASE,DARLOT MINING COMPANY PTY LTD,LIVE,https://minedex.dmirs.wa.gov.au/Web/projects/details/dd659854-9f71-422f-84b8-6e99f87ef2b6
Darlot / Leopard,Darlot,J03317,-27.805606,121.255808,Undeveloped,Deposit,Unspecified,"Au, Ag",Eastern Goldfields Superterrane,1.835,2.11792916,124950.5,0.0,0.0,0.0,124950.5,E 37/1220,EXPLORATION LICENCE,"PATERSON, ANDREW GEORGE",LIVE,https://minedex.dmirs.wa.gov.au/Web/projects/details/82fcd76b-a062-4a31-a804-0d4befee9f26
Davyhurst - Lady Ida - Mulline - Riverina - Siberia Gold,Davyhurst,J00084,-30.150208,120.65021,Care and Maintenance,Mine,Openpit,"Au, Ag",Eastern Goldfields Superterrane,50.309,2.07291538,3352877.5,3.013,2.43491537,235870.4,3588747.9,M 30/255,MINING LEASE,CARNEGIE GOLD PTY LTD,LIVE,https://minedex.dmirs.wa.gov.au/Web/projects/details/0a52af5f-f0c6-4fde-849e-5e2121cde0c1
Day Dawn - Little Wonder,Day Dawn - Little Wonder,J01831,-27.465477,117.872111,Undeveloped,Deposit,Unspecified,Au,Youanmi Terrane,0.035,2.44,2745.7,0.0,0.0,0.0,2745.7,M 21/89,MINING LEASE,BIG BELL GOLD OPERATIONS PTY LTD,LIVE,https://minedex.dmirs.wa.gov.au/Web/projects/details/4d4bac3c-1216-4988-9be9-ac63aa87b649
Deflector,Deflector,J00147,-28.669093,116.379436,Care and Maintenance,Mine,Openpit,"Au, Cu, Ag",Youanmi Terrane,2.713,8.53265757,744259.8,1.589,3.72410321,190255.0,934514.8,M 59/442,MINING LEASE,DEFLECTOR GOLD PTY LTD,LIVE,https://minedex.dmirs.wa.gov.au/Web/projects/details/c4064285-5c85-4aa8-b62c-7b0de2c2d89c
Devon - Linden / Matsa,Devon - Linden,J00216,-29.285789,122.442397,Operating,Mine,Openpit,"Au, Ag",Eastern Goldfields Superterrane,1.408,3.23323864,146362.8,0.309,4.6,45699.0,192061.8,M 39/1077,MINING LEASE,MATSA GOLD PTY LTD,LIVE,https://minedex.dmirs.wa.gov.au/Web/projects/details/9531f689-591c-4401-8636-6b0189dc459d
Dingo Range,Dingo Range,J01639,-27.367498,121.434796,Operating,Mine,Openpit,"Au, Ag",Eastern Goldfields Superterrane,40.9,1.0608802,1395018.9,0.0,0.0,0.0,1395018.9,M 37/519,MINING LEASE,EMERALD RESOURCES (WA) PTY LTD,LIVE,https://minedex.dmirs.wa.gov.au/Web/projects/details/e5a6b067-78b9-4a12-8814-f97fba430626
Doherty,Doherty,J03201,-27.479588,119.16951,Shut,Mine,Shaft,"Au, Ag",Youanmi Terrane,0.025,23.8,19129.7,0.0,0.0,0.0,19129.7,M 57/619,MINING LEASE,NORTHERN TAILINGS GROUP PTY LTD,LIVE,https://minedex.dmirs.wa.gov.au/Web/projects/details/406467cc-2f8e-42fe-9790-2c2275fffaee
Dordie,Dordie,J03966,-31.582038,121.627155,Undeveloped,Deposit,Unspecified,"Au, Ag",Yilgarn Craton granites,0.5778,1.1,20434.3,0.0,0.0,0.0,20434.3,P 15/5911,PROSPECTING LICENCE,WYLOO KAMBALDA PTY LTD,LIVE,https://minedex.dmirs.wa.gov.au/Web/projects/details/d6d74e3c-dad8-48d1-80d7-561c94e7ce8e
Duketon / Regis Resources,Duketon,J00009,-27.970398,122.339004,Shut,Mine,Openpit,"Au, Ag",Burtville Terrane,87.0,1.13218391,3166844.0,39.0,1.04133333,1305704.2,4472548.2,M 38/407,MINING LEASE,DUKETON RESOURCES PTY LTD,LIVE,https://minedex.dmirs.wa.gov.au/Web/projects/details/31b06c95-29a4-4116-a5f6-dcb675a4d581
Dulcie - Fortuna - Parker Range,Dulcie - Fortuna - Parker Range,J01649,-31.766216,119.600224,Undeveloped,Deposit,Unspecified,Au,Youanmi Terrane,1.12,0.7,25206.1,0.0,0.0,0.0,25206.1,M 77/1246,MINING LEASE,HIGHSCORE PTY LTD,LIVE,https://minedex.dmirs.wa.gov.au/Web/projects/details/750a045a-ddfe-428d-9587-4c7921645a5a
Eagle,Eagle,J05965,-19.575912,128.865875,Undeveloped,Deposit,Unspecified,"Au, Ag",Granites--Tanami Orogen,1.72,3.60069767,199115.7,0.0,0.0,0.0,199115.7,E 80/5871,EXPLORATION LICENCE,BLACK CAT (COYOTE) PTY LTD,LIVE,https://minedex.dmirs.wa.gov.au/Web/projects/details/0d2f6f57-5732-522a-7c3a-96634c5ef9b9
Eagle Hawk,Eagle Hawk,J06009,-27.415806,118.085413,Shut,Mine,Shaft,"Au, Ag",Youanmi Terrane,0.006,18.3,3530.1,0.0,0.0,0.0,3530.1,L 20/90; M 20/263,MISCELLANEOUS LICENCE; MINING LEASE,"CYPRIUM METALS LIMITED; BURNELL, RYAN EDWARD",LIVE; LIVE,https://minedex.dmirs.wa.gov.au/Web/projects/details/40920e0b-457e-1bb9-7120-0b6d9d32d461
East Location 45 (Loc45),Loc45,J06431,-31.012837,121.682513,Care and Maintenance,Mine,Openpit,"Au, Ag",Eastern Goldfields Superterrane,9.295,1.480312,442377.6,0.0,0.0,0.0,442377.6,,,,,https://minedex.dmirs.wa.gov.au/Web/projects/details/26bf1085-461f-733d-a447-54a0037dd5d4
East Menzies Gold,East Menzies,J02197,-29.678126,121.137651,Undeveloped,Prospect,Drillhole,"Au, Ag",Eastern Goldfields Superterrane,1.611,1.17123526,60663.9,0.0,0.0,0.0,60663.9,P 29/2460,PROSPECTING LICENCE,MENZIES GOLDFIELD PTY LTD,LIVE,https://minedex.dmirs.wa.gov.au/Web/projects/details/06fb8aea-7267-46f7-b5ea-7db89bd6d3eb
East Sampson,East Sampson,J03021,-30.38414,121.582975,Undeveloped,Deposit,Unspecified,"Au, Ag",Eastern Goldfields Superterrane,0.2646,2.53854875,21595.6,0.0,0.0,0.0,21595.6,M 27/263,MINING LEASE,MINERAL MINING SERVICES PTY LTD,LIVE,https://minedex.dmirs.wa.gov.au/Web/projects/details/ba2286aa-2150-4a6d-8b92-6120da509b8c
Eastern Goldfields - Leonora,Eastern Goldfields,J05936,-30.79559,121.137987,Undeveloped,Deposit,Unspecified,Au,Eastern Goldfields Superterrane,0.2316,1.67,12435.0,0.0,0.0,0.0,12435.0,E 15/1632,EXPLORATION LICENCE,OUTBACK MINERALS PTY LTD,LIVE,https://minedex.dmirs.wa.gov.au/Web/projects/details/88f20ed4-583d-2f44-1928-2e6a477f2987
Eastern Lefroy,Eastern Lefroy,J05221,-31.183557,122.02631,Undeveloped,Deposit,Unspecified,"Au, Cu, Ag, Mo, Co",Eastern Goldfields Superterrane,44.902,0.41742105,602601.9,0.0,0.0,0.0,602601.9,E 15/1715,EXPLORATION LICENCE,MONGER EXPLORATION PTY LTD,LIVE,https://minedex.dmirs.wa.gov.au/Web/projects/details/dc5618f0-a0e8-44c4-8ef9-96c29f83b8f1
Eastman Base Metals,Eastman,J02781,-18.710427,126.561006,Undeveloped,Deposit,Unspecified,"Zn, Pb, Cu, Ag, Au","Lamboo Province, Central Zone",1.5,0.02,964.5,0.0,0.0,0.0,964.5,E 80/4990,EXPLORATION LICENCE,S A DRILLING PTY LTD,LIVE,https://minedex.dmirs.wa.gov.au/Web/projects/details/118bee1b-1e30-4ccd-b0ec-c6425a42b3be
Edjudina / Gibb River,Edjudina / Gibb River,J04709,-29.763541,122.479564,Proposed,Mine,Heap leach pad,Au,Eastern Goldfields Superterrane,25.185,1.5192166,1230133.0,0.0,0.0,0.0,1230133.0,M 31/495,MINING LEASE,GIBB RIVER DIAMONDS LIMITED,LIVE,https://minedex.dmirs.wa.gov.au/Web/projects/details/5bbec56c-a1e2-46ab-bf1b-60364d42402f
Edna May - Westonia,Edna May - Westonia,J00357,-31.291758,118.700165,Care and Maintenance,Mine,Decline,"Au, Ag, Opalc",South West Terrane,30.72,1.00234375,989984.4,0.0,0.0,0.0,989984.4,M 77/88,MINING LEASE,EDNA MAY OPERATIONS PTY LTD,LIVE,https://minedex.dmirs.wa.gov.au/Web/projects/details/c3e0d209-6e59-4a73-943c-82c152df35d8
Egerton,Egerton,J01859,-24.938833,117.749667,Undeveloped,Deposit,Unspecified,"Au, Ag",Capricorn Orogen,0.27,3.11851852,27070.9,0.0,0.0,0.0,27070.9,M 52/343,MINING LEASE,EGERTON EXPLORATION PTY LTD,LIVE,https://minedex.dmirs.wa.gov.au/Web/projects/details/727e09f0-f1ac-4252-9cfb-bc717811d78a
Erayinia/King,Erayinia/King,J03914,-31.398842,122.708872,Undeveloped,Deposit,Unspecified,"Au, Ag",Eastern Goldfields Superterrane,0.201,2.1,13570.8,0.0,0.0,0.0,13570.8,P 28/1320,PROSPECTING LICENCE,IMAGE RESOURCES NL,LIVE,https://minedex.dmirs.wa.gov.au/Web/projects/details/8bb2ab74-0954-4187-83be-e386c8a60aaf
Errolls,Errolls,J05889,-27.322916,119.039505,Undeveloped,Deposit,Unspecified,"Au, Ag",Yilgarn Craton granites,0.028,4.13,3717.9,0.05,2.5848,4155.2,7873.1,E 57/996,EXPLORATION LICENCE,KYARRA MINERALS PTY LTD,LIVE,https://minedex.dmirs.wa.gov.au/Web/projects/details/33ae8361-ee50-a028-3cdd-f5023981bdaf
Eucalyptus,Eucalyptus,J07128,-29.182568,122.169512,Undeveloped,Deposit,Unspecified,"Au, Ag",Eastern Goldfields Superterrane,0.853,2.77151231,76007.5,0.0,0.0,0.0,76007.5,E 39/2032,EXPLORATION LICENCE,"GALEA, MICHAEL",LIVE,https://minedex.dmirs.wa.gov.au/Web/projects/details/b586af39-7c40-1967-733b-db729dbe1025
Eureka,Eureka,J01885,-30.327214,121.257786,Under Development,Mine,Openpit,"Au, Ag",Eastern Goldfields Superterrane,2.0416,1.68640576,110693.8,0.0,0.0,0.0,110693.8,M 24/1022,MINING LEASE,WARRIEDAR MINING PTY LTD,LIVE,https://minedex.dmirs.wa.gov.au/Web/projects/details/acbcbbc0-bc5a-473a-840a-1eb814c32327
Evanston Tailings,Evanston Tailings,J01441,-29.745687,119.48701,Shut,Mine,Tailings storage facility,Au,Youanmi Terrane,0.03,2.41,2324.5,0.0,0.0,0.0,2324.5,P 77/4179,PROSPECTING LICENCE,MARDA OPERATIONS PTY LTD,LIVE,https://minedex.dmirs.wa.gov.au/Web/projects/details/a13670c4-c9a9-4f9b-b275-b4b3b29f24ea
Evolution Cue JV,Evolution Cue JV,J06336,-27.642448,117.867856,Undeveloped,Deposit,Unspecified,"Au, Ag",Youanmi Terrane,1.7,2.6,142106.1,0.0,0.0,0.0,142106.1,E 21/129,EXPLORATION LICENCE,MUSGRAVE MINERALS LIMITED,LIVE,https://minedex.dmirs.wa.gov.au/Web/projects/details/3d816e51-1ae6-b58c-33ad-e6e648824e74
Feysville,Feysville,J03724,-30.931857,121.583848,Undeveloped,Deposit,Unspecified,"Au, Ag",Eastern Goldfields Superterrane,5.0,1.216,195476.3,2.3,1.1826087,87449.9,282926.2,P 26/4633,PROSPECTING LICENCE,FEYSVILLE GOLD PTY LTD,LIVE,https://minedex.dmirs.wa.gov.au/Web/projects/details/7e789aa1-6925-4665-9dd5-4a2570db172e
Fields Find - The Baron,Fields Find - The Baron,J01918,-29.06843,117.432855,Undeveloped,Deposit,Unspecified,"Au, Ag",Youanmi Terrane,0.693,1.4,31192.6,0.0,0.0,0.0,31192.6,M 59/63,MINING LEASE,DC MINES PTY LTD,LIVE,https://minedex.dmirs.wa.gov.au/Web/projects/details/a1f2ac1c-ffb8-491e-9044-211d6cf9092d
Forrest,Forrest,J04153,-25.413858,118.393121,Undeveloped,Deposit,Unspecified,"Cu, Au, Ag",Bryah Basin,2.402,0.47499584,36682.0,0.0,0.0,0.0,36682.0,R 52/10,RETENTION LICENCE,ARAGON RESOURCES PTY LTD,LIVE,https://minedex.dmirs.wa.gov.au/Web/projects/details/17313e72-9d96-40c6-9991-89618f402ebb
Forrestania Gold,Forrestania,J05338,-32.234377,119.667485,Undeveloped,Deposit,Unspecified,"Au, Ag",Youanmi Terrane,6.9503,1.33166022,297568.8,0.0,0.0,0.0,297568.8,M 77/1310,MINING LEASE,HYDEN PROJECT HOLDINGS PTY LTD,LIVE,https://minedex.dmirs.wa.gov.au/Web/projects/details/564e1c7e-5cf4-4077-ba32-68875deb50fb
Forrestania Gold / Forrestania,Forrestania,J04938,-32.229833,119.711956,Undeveloped,Deposit,Unspecified,"Au, Ag",Youanmi Terrane,1.2221,1.03079617,40501.4,0.0,0.0,0.0,40501.4,M 77/1325,MINING LEASE,FORRESTANIA RESOURCES LIMITED,LIVE,https://minedex.dmirs.wa.gov.au/Web/projects/details/42aa1643-dbcf-480b-b7b6-6c3193d6fabe
Forrestania South Gold,Forrestania South,J04334,-32.824537,119.983912,Shut,Mine,Openpit,"Au, Ag",Youanmi Terrane,0.045,4.38844444,6349.1,0.0,0.0,0.0,6349.1,E 74/603,EXPLORATION LICENCE,MYAMBA MINERALS PTY LTD,LIVE,https://minedex.dmirs.wa.gov.au/Web/projects/details/bbace197-33be-4280-8629-ee9f4c7958a2
Fortitude,Fortitude,J02498,-29.266957,122.541279,Care and Maintenance,Mine,Openpit,"Au, Ag",Burtville Terrane,8.916,1.9403432,556210.3,1.029,1.8,59549.5,615759.8,E 39/1864,EXPLORATION LICENCE,MATSA GOLD PTY LTD,LIVE,https://minedex.dmirs.wa.gov.au/Web/projects/details/9c1014f5-a656-4ca6-9eb5-af9f9d66de5c
Fortnum,Fortnum,J00109,-25.321886,118.358508,Operating,Mine,Decline,"Au, Ag",Bryah Basin,28.0639,2.11903983,1911954.6,4.804,2.13550583,329833.1,2241787.7,M 52/132,MINING LEASE,ARAGON RESOURCES PTY LTD,LIVE,https://minedex.dmirs.wa.gov.au/Web/projects/details/987ea2c5-255b-4a74-86a5-9ce5efa3d632
Foster-Baker - Kambalda Gold,Kambalda Gold,J06786,-31.359781,121.769429,Operating,Mine,Unspecified,Au,Eastern Goldfields Superterrane,1.471,1.80978926,85591.6,0.2682,1.89,16297.1,101888.7,M 15/1549,MINING LEASE,LUNNON METALS LIMITED,LIVE,https://minedex.dmirs.wa.gov.au/Web/projects/details/f70be584-4669-2d0a-de0e-0b96a87c1c01
Francis Furness,Francis Furness,J01572,-31.497266,119.534113,Shut,Mine,Unspecified,"Au, Ag",Youanmi Terrane,0.003,40.0,3858.1,0.0,0.0,0.0,3858.1,M 77/25,MINING LEASE,SALVATION GOLD PTY LTD,LIVE,https://minedex.dmirs.wa.gov.au/Web/projects/details/78f88d41-9070-4461-bbe3-60c11f2fc3ae
Garden Gully / CEREP,Garden Gully,J02280,-30.965896,121.172511,Undeveloped,Deposit,Unspecified,"Au, Ag",Eastern Goldfields Superterrane,0.121,3.04,11826.3,0.0,0.0,0.0,11826.3,M 15/675,MINING LEASE,FOCUS MINERALS LTD,LIVE,https://minedex.dmirs.wa.gov.au/Web/projects/details/db7ef5b6-e38d-466d-b19b-ad62e8ba6e88
Garden Gully / New Murchison,Garden Gully,J01772,-26.448724,118.464348,Operating,Mine,Openpit,"Au, Ag",Youanmi Terrane,2.244,3.8714795,279312.4,0.92,4.57717391,135386.6,414699.0,M 51/886,MINING LEASE,NM GOLD OPERATIONS PTY LTD,LIVE,https://minedex.dmirs.wa.gov.au/Web/projects/details/e54380db-0e9c-4457-98c5-f0ceff4ce9df
GBF Paris ,GBF Paris ,J04873,-31.588749,121.975891,Care and Maintenance,Mine,Openpit,"Au, Ag",Eastern Goldfields Superterrane,2.518,3.09912629,250891.2,0.0,0.0,0.0,250891.2,M 15/498,MINING LEASE,TORQUE METALS LIMITED,LIVE,https://minedex.dmirs.wa.gov.au/Web/projects/details/1f5c3695-8f8b-4a2f-8978-982ac988357a
Gibraltar South / Torian,Gibraltar South,J00218,-31.055616,120.994212,Undeveloped,Deposit,Unspecified,"Au, Ag",Eastern Goldfields Superterrane,0.062,3.8,7574.7,0.0,0.0,0.0,7574.7,M 15/1876,MINING LEASE,GOLDARC RESOURCES LIMITED,PENDING,https://minedex.dmirs.wa.gov.au/Web/projects/details/34e001bc-f97d-4297-8ec3-12b20ee1d88d
Gimlet / First Au,Gimlet,J05443,-30.682767,121.375287,Undeveloped,Deposit,Unspecified,"Au, Ag",Eastern Goldfields Superterrane,1.1659,3.19,119575.6,0.0,0.0,0.0,119575.6,M 26/849,MINING LEASE,FIRST AU LIMITED,LIVE,https://minedex.dmirs.wa.gov.au/Web/projects/details/8561e219-ba1a-4144-aef6-109ff17775ab
Gladiator Tailings,Gladiator Tailings,J01502,-28.624496,122.356409,Shut,Mine,Tailings storage facility,Au,Eastern Goldfields Superterrane,0.1,1.2,3858.1,0.0,0.0,0.0,3858.1,L 38/200; LTT 70/4731; M 38/364,MISCELLANEOUS LICENCE; LICENCE TO TREAT TAILINGS; MINING LEASE,DOVERIDGE INVESTMENTS PTY LTD; SVENSON NOMINEES PTY LTD; LAVERTON GOLD PTY LTD,LIVE; LIVE; LIVE,https://minedex.dmirs.wa.gov.au/Web/projects/details/9d2963bd-9d9d-48d0-ab89-bb111b0e2728
Glenburgh,Glenburgh,J02011,-25.391457,116.100229,Proposed,Mine,Openpit,"Au, Ag",Glenburgh Terrane,16.34,0.95899633,503801.5,0.0,0.0,0.0,503801.5,M 09/148,MINING LEASE,GASCOYNE RESOURCES (WA) PTY LTD,LIVE,https://minedex.dmirs.wa.gov.au/Web/projects/details/e641a01f-06d3-4ace-bf59-fcd86800d935
Gold Duke,Gold Duke,J00060,-26.787785,119.951775,Proposed,Mine,Openpit,"Au, Ag",Youanmi Terrane,4.844,1.80489265,281090.4,0.0,0.0,0.0,281090.4,M 53/1018-I,MINING LEASE,GWR GROUP LIMITED,LIVE,https://minedex.dmirs.wa.gov.au/Web/projects/details/97039f06-4d3f-4b40-8585-2c9dadfb9739
Golden Grove,Golden Grove,J00527,-28.765074,116.962417,Operating,Mine,Decline,"Cu, Zn, Pb, Ag, Au",Youanmi Terrane,63.0,0.58079365,1176394.1,18.1,0.63149171,367482.5,1543876.6,L 59/26; M 59/195,MISCELLANEOUS LICENCE; MINING LEASE,GOLDEN GROVE OPERATIONS PTY LTD; GOLDEN GROVE OPERATIONS PTY LTD,LIVE; LIVE,https://minedex.dmirs.wa.gov.au/Web/projects/details/4de6c8ba-e23b-400d-98a6-14dc6f4f9875
Golden Grove Alluvials 2 / Minjar,Golden Grove Alluvials 2,J01430,-28.76748,116.991158,Shut,Mine,Scraping-Detecting area,Au,Yilgarn Craton granites,0.02,0.6,385.8,0.0,0.0,0.0,385.8,M 59/268-I,MINING LEASE,DC MINES PTY LTD,LIVE,https://minedex.dmirs.wa.gov.au/Web/projects/details/c8392db1-f1f9-4a12-a4f3-3cc71fd8c41f
Golden Lode,Golden Lode,J04001,-30.06212,120.620351,Operating,Mine,Unspecified,"Au, Ag",Eastern Goldfields Superterrane,0.21,8.3,56038.7,0.0,0.0,0.0,56038.7,E 30/589; M 30/257,EXPLORATION LICENCE; MINING LEASE,ADMIRAL GOLD PTY LTD; MINSTREL RESOURCES PTY LTD,LIVE; LIVE,https://minedex.dmirs.wa.gov.au/Web/projects/details/38affa13-12dd-4bab-8cee-622ae4c34067
Golden Mile / KCGM,Golden Mile,J00102,-30.777958,121.50353,Operating,Mine,Openpit,"Au, Ag",Eastern Goldfields Superterrane,836.282,1.42705152,38369208.0,363.973,1.22076418,14285366.2,52654574.2,M 26/405,MINING LEASE,NORTHERN STAR (KLV) PTY LTD,LIVE,https://minedex.dmirs.wa.gov.au/Web/projects/details/0b1c0b2d-2f3a-4e5e-8e6b-c3a6faa2f2a7
Golden Range,Golden Range,J01075,-28.906021,116.950325,Care and Maintenance,Mine,Openpit,"Au, Sb",Youanmi Terrane,25.585,1.63686457,1346445.0,0.0,0.0,0.0,1346445.0,M 59/421-I,MINING LEASE,DC MINES PTY LTD,LIVE,https://minedex.dmirs.wa.gov.au/Web/projects/details/f63f54e8-acb3-44cf-94cb-28b8fd00627d
Golden Ridge,Golden Ridge,J01021,-30.847831,121.667355,Care and Maintenance,Mine,Openpit,"Au, Ag",Eastern Goldfields Superterrane,1.42,1.23133803,56215.5,0.0,0.0,0.0,56215.5,M 26/41; L 26/240,MINING LEASE; MISCELLANEOUS LICENCE,BLACK MOUNTAIN GOLD PTY LIMITED; POLYMETALS (WA) PTY LTD,LIVE; LIVE,https://minedex.dmirs.wa.gov.au/Web/projects/details/dc0adb75-0600-4dd9-90f7-f2ba13fea418
Golden Vale - Copperfield,Golden Vale - Copperfield,J01202,-29.119103,120.513814,Proposed,Mine,Openpit,Au,Eastern Goldfields Superterrane,0.496,1.7,27109.5,0.0,0.0,0.0,27109.5,M 29/94,MINING LEASE,MT IDA LITHIUM PTY LTD,LIVE,https://minedex.dmirs.wa.gov.au/Web/projects/details/cb35c805-8118-4d3f-badf-9db68f38b246
Golden Valley Prospecting / Taylor,Golden Valley Prospecting,J02483,-30.880956,119.040408,Shut,Mine,Decline,"Au, Ag",Youanmi Terrane,0.022,19.71818182,13947.0,0.0,0.0,0.0,13947.0,M 77/979,MINING LEASE,"TAYLOR, PETER JOHN",LIVE,https://minedex.dmirs.wa.gov.au/Web/projects/details/0c97a583-2ba1-4bc6-a469-26a3f866fc06
Golden Virgin - Parker Range,Golden Virgin - Parker Range,J02634,-31.632998,119.586036,Shut,Mine,Openpit,Au,Youanmi Terrane,0.17,3.1,16943.4,0.0,0.0,0.0,16943.4,M 77/405,MINING LEASE,DJO MINERALS PTY LTD,LIVE,https://minedex.dmirs.wa.gov.au/Web/projects/details/4fea73a5-52bd-4492-ade0-e3235cbab30c
Gonneville,Gonneville,J05657,-31.521578,116.21026,Undeveloped,Deposit,Unspecified,"Ni, Cu, Pd, Pt, Co, Au, Ag",Yilgarn Craton granites,664.4,0.02174744,464545.5,262.5,0.0260381,219750.0,684295.5,E 70/5118,EXPLORATION LICENCE,CGM (WA) PTY LTD,LIVE,https://minedex.dmirs.wa.gov.au/Web/projects/details/7967c071-c35b-e1e0-641f-cb87ed783791
Goodenough / Kairiki,Goodenough,J02707,-29.676896,121.077914,Undeveloped,Deposit,Unspecified,"Au, Ag",Eastern Goldfields Superterrane,1.358,1.40178203,61202.7,0.0,0.0,0.0,61202.7,M 29/141,MINING LEASE,MENZIES GOLDFIELD PTY LTD,LIVE,https://minedex.dmirs.wa.gov.au/Web/projects/details/b2dd684c-8aae-49fa-9c0c-3e14da08865e
Goongarrie Gold,Goongarrie,J04881,-30.148226,121.186411,Undeveloped,Deposit,Unspecified,"Au, Ag",Eastern Goldfields Superterrane,0.178,2.7,15451.6,0.0,0.0,0.0,15451.6,L 24/227; M 24/778-I,MISCELLANEOUS LICENCE; MINING LEASE,APHRODITE GOLD PTY LTD; KALGOORLIE NICKEL PTY LTD,LIVE; LIVE,https://minedex.dmirs.wa.gov.au/Web/projects/details/2a58dbe5-5b56-4fb1-ab2a-40f514401f53
Goongarrie Lady,Goongarrie Lady,J04956,-30.081341,121.184491,Operating,Mine,Openpit,"Au, Ag",Eastern Goldfields Superterrane,0.31,2.36645161,23585.8,0.0,0.0,0.0,23585.8,M 29/420,MINING LEASE,RESOURCE MINING PTY LTD,LIVE,https://minedex.dmirs.wa.gov.au/Web/projects/details/7e738359-086c-413a-a3b5-245effb8c535
Gordon - Sirdar,Gordon - Sirdar,J01307,-30.450334,121.594507,Operating,Mine,Openpit,"Au, Ag",Eastern Goldfields Superterrane,1.398,1.65,74162.0,0.0,0.0,0.0,74162.0,M 27/412; L 27/78,MINING LEASE; MISCELLANEOUS LICENCE,FMR INVESTMENTS PTY LIMITED; POSEIDON NICKEL PTY LIMITED,LIVE; LIVE,https://minedex.dmirs.wa.gov.au/Web/projects/details/2fc8c5eb-bee0-4563-a263-40d95b53d0ec
Gordons Project,Gordons Project,J05485,-30.420924,121.539519,Undeveloped,Deposit,Unspecified,"Au, Ag",Eastern Goldfields Superterrane,0.365,1.7,19949.5,0.0,0.0,0.0,19949.5,M 27/502,MINING LEASE,YANDAL RESOURCES LIMITED,LIVE,https://minedex.dmirs.wa.gov.au/Web/projects/details/a5dcd70d-4cb4-46f4-98c0-6a112fb44ac4
Grace,Grace,J04502,-21.93771,122.339285,Undeveloped,Deposit,Unspecified,"Au, Cu, As, Ag",Yeneena Basin,1.59,1.35,69011.5,0.0,0.0,0.0,69011.5,E 45/4524,EXPLORATION LICENCE,ACN 603 462 513 PTY LTD,LIVE,https://minedex.dmirs.wa.gov.au/Web/projects/details/5f1672ea-431a-4ba5-aefa-bc8e9a87124c
Grace Darling,Grace Darling,J00133,-30.392884,121.31889,Care and Maintenance,Mine,Shaft,Au,Eastern Goldfields Superterrane,0.13,10.0,41795.9,0.0,0.0,0.0,41795.9,M 24/372,MINING LEASE,IRONHAWK RESOURCES (GOLD OPERATIONS) PTY LTD,LIVE,https://minedex.dmirs.wa.gov.au/Web/projects/details/15d245ba-b740-4b66-82b0-da7ce338a450
Granny Smith,Granny Smith,J00134,-28.852129,122.305127,Operating,Mine,Decline,"Au, Ag",Yilgarn Craton granites,23.561,5.10314503,3865645.8,11.542,6.47716167,2403567.0,6269212.8,M 38/692,MINING LEASE,GSM MINING COMPANY PTY LTD,LIVE,https://minedex.dmirs.wa.gov.au/Web/projects/details/64ecf09e-d625-46fc-b5e3-cb0488287c54
Grants Creek,Grants Creek,J01224,-17.831605,127.913705,Undeveloped,Deposit,Unspecified,"Au, Ag","Lamboo Province, Eastern Zone",0.179,2.4,13811.9,0.0,0.0,0.0,13811.9,E 80/4952,EXPLORATION LICENCE,HALLS CREEK MINING PTY LTD,LIVE,https://minedex.dmirs.wa.gov.au/Web/projects/details/5cb6f9e1-0b73-4c7a-822b-a6d4fcebab9a
Grass Flat,Grass Flat,J04875,-29.475505,119.095408,Shut,Mine,Openpit,"Au, Ag, PGE, Ni",Youanmi Terrane,0.763419,3.21123767,78818.1,0.0,0.0,0.0,78818.1,E 77/3353; P 77/4706,EXPLORATION LICENCE; PROSPECTING LICENCE,DUKETON MINING LIMITED; WEST AUSTRALIAN PROSPECTORS PTY LTD,PENDING; PENDING,https://minedex.dmirs.wa.gov.au/Web/projects/details/53a20a50-5e31-4ff5-86d1-31c174c330bd
Great Bingin - Bullfinch North - Central East Zone,Great Bingin,J00129,-30.828528,119.052409,Shut,Mine,Decline,"Au, Ag",Youanmi Terrane,0.0547,7.37082267,12962.6,0.0,0.0,0.0,12962.6,P 77/4350,PROSPECTING LICENCE,NICKGRAPH PTY LTD,LIVE,https://minedex.dmirs.wa.gov.au/Web/projects/details/044f5014-619d-4481-a270-5712b0d38e3e
Great Western,Great Western,J05237,-28.317041,121.180502,Care and Maintenance,Mine,Openpit,"Au, Ag",Yilgarn Craton granites,0.385,2.81818182,34883.5,0.0,0.0,0.0,34883.5,M 37/54,MINING LEASE,DARLOT MINING COMPANY PTY LTD,LIVE,https://minedex.dmirs.wa.gov.au/Web/projects/details/972b04bb-9190-4d16-899a-142a8c34346f
Gum Creek Gold,Gum Creek,J00115,-27.045187,119.328781,Undeveloped,Deposit,Unspecified,"Cu, Zn",Youanmi Terrane,37.969,1.88472754,2300743.3,0.0,0.0,0.0,2300743.3,E 51/1538,EXPLORATION LICENCE,GUM CREEK GOLD MINES PTY LTD,LIVE,https://minedex.dmirs.wa.gov.au/Web/projects/details/9aa00eb9-fb67-46f1-81c9-9bc13c9b72b4
Gwalia - Leonora,Gwalia - Leonora,J00330,-28.918407,121.333484,Operating,Mine,Decline,"Au, Ag",Eastern Goldfields Superterrane,63.206,3.45356137,7018041.3,21.71,3.02422847,2110886.4,9128927.7,M 37/137,MINING LEASE,GENESIS MINERALS (LEONORA) PTY LTD,LIVE,https://minedex.dmirs.wa.gov.au/Web/projects/details/bc12581c-a62c-443c-96b2-c1eac43e8a8d
Halls Creek - Lamboo Gold,Halls Creek - Lamboo,J01508,-18.409412,127.356968,Care and Maintenance,Mine,Decline,"Au, Ag","Lamboo Province, Central Zone",0.772,5.95906736,147906.1,0.276,5.69202899,50508.7,198414.8,M 80/359,MINING LEASE,HALLS CREEK MINING PTY LTD,LIVE,https://minedex.dmirs.wa.gov.au/Web/projects/details/047efc77-3c77-4b0d-93a6-a7330efbfc8b
Hannan South,Hannan South,J00149,-30.883397,121.552607,Shut,Mine,Openpit,"Au, Cu, Co, Bi",Eastern Goldfields Superterrane,0.005,1.0,160.8,0.0,0.0,0.0,160.8,P 26/3671,PROSPECTING LICENCE,NORTHERN STAR (KLV) PTY LTD,LIVE,https://minedex.dmirs.wa.gov.au/Web/projects/details/269f9c1d-67da-4832-8a5a-64ee9fe84ea2
Hannans North Tourist Mine,Hannans North Tourist Mine,J01349,-30.727877,121.470606,Care and Maintenance,Mine,Shaft,"Au, Ag",Eastern Goldfields Superterrane,0.07,1.77142857,3986.7,0.0,0.0,0.0,3986.7,M 26/353; G 26/81,MINING LEASE; GENERAL PURPOSE LEASE,NORTHERN STAR (KLV) PTY LTD; NORTHERN STAR (KLV) PTY LTD,LIVE; LIVE,https://minedex.dmirs.wa.gov.au/Web/projects/details/c73325b9-ea0b-4e8a-8b9c-b80d26c0a02f
Hawkins Find,Hawkins Find,J01884,-30.498374,121.021971,Operating,Mine,Openpit,"Au, Ag",Eastern Goldfields Superterrane,0.05,3.0,4822.6,0.0,0.0,0.0,4822.6,M 16/231,MINING LEASE,"PHOTIOS, MICHAEL JOHN",LIVE,https://minedex.dmirs.wa.gov.au/Web/projects/details/40252613-da4c-49ae-9a16-114f06205ff6
Hawks Nest / Magnetic,Hawks Nest,J05357,-28.703143,122.233741,Undeveloped,Deposit,Unspecified,"Au, Ag",Eastern Goldfields Superterrane,0.6521,0.78233093,16401.9,0.0,0.0,0.0,16401.9,E 38/3127,EXPLORATION LICENCE,MAGNETIC RESOURCES NL,LIVE,https://minedex.dmirs.wa.gov.au/Web/projects/details/3cbbe48d-2edd-4fc5-a694-8c102dfc3618
Hemi Gold,Hemi Gold,J02786,-20.863369,118.427678,Undeveloped,Deposit,Unspecified,"Au, Ag",Mallina Basin,273.7,1.31172817,11542744.3,120.8,1.54536424,6001892.7,17544637.0,M 47/1628,MINING LEASE,NORTHERN STAR (HEMI) PTY LTD,LIVE,https://minedex.dmirs.wa.gov.au/Web/projects/details/84d8098d-bbcc-4070-8b33-b469ed47df76
Hermes Gold,Hermes,J02253,-25.581773,118.908313,Care and Maintenance,Mine,Openpit,Au,Yilgarn Craton granites,3.6,1.84166667,213159.1,1.2,1.6,61729.3,274888.4,M 52/685,MINING LEASE,CATALYST (PLUTONIC) PTY LTD,LIVE,https://minedex.dmirs.wa.gov.au/Web/projects/details/f084296d-71b5-483b-8777-0e8685fd3ca0
Higginsville,Higginsville,J00152,-31.728736,121.729907,Shut,Mine,Openpit,Au,Eastern Goldfields Superterrane,12.256,2.56300914,1009925.5,3.483,2.04735573,229264.7,1239190.2,M 15/225,MINING LEASE,KARORA (HIGGINSVILLE) PTY LTD,LIVE,https://minedex.dmirs.wa.gov.au/Web/projects/details/74c747be-9fe0-4b04-b92e-662c734ac182
Hilditch Gold,Hilditch Gold,J06141,-31.298243,121.468955,Proposed,Mine,Openpit,Au,Eastern Goldfields Superterrane,0.3,1.3,12538.8,0.0,0.0,0.0,12538.8,M 15/1448,MINING LEASE,BULLABULLING PTY LTD,LIVE,https://minedex.dmirs.wa.gov.au/Web/projects/details/b3f9cf00-32c4-b311-6a3b-dd626befd777
Historic Gold - Broad Arrow (24),Historic - Broad Arrow (24),J03523,-30.203118,120.967013,Shut,Mine,Unspecified,Au,Eastern Goldfields Superterrane,0.397,6.64,84751.8,0.0,0.0,0.0,84751.8,M 24/960,MINING LEASE,SIBERIA MINING CORPORATION PTY LTD,LIVE,https://minedex.dmirs.wa.gov.au/Web/projects/details/fa978c15-32b0-4a84-b0ea-7c199c097910
Hogans - Coogee,Hogans - Coogee,J01878,-31.133135,121.880357,Shut,Mine,Openpit,"Au, Ag, Cu",Eastern Goldfields Superterrane,3.6547,1.07813391,126682.0,0.0,0.0,0.0,126682.0,M 26/477,MINING LEASE,JAVELIN MINERALS LIMITED,LIVE,https://minedex.dmirs.wa.gov.au/Web/projects/details/807222fe-8bac-4866-88bc-bf7e226b32ed
Hollandaire - Eelya,Hollandaire - Eelya,J04178,-27.35615,118.187329,Proposed,Mine,Openpit,"Cu, Au, Ag",Youanmi Terrane,3.736,0.67746253,81373.4,0.0,0.0,0.0,81373.4,M 20/526,MINING LEASE,CYPRIUM METALS LIMITED,LIVE,https://minedex.dmirs.wa.gov.au/Web/projects/details/c9e83e59-5730-475d-89b8-eb5bc2c4acde
Holleton - Learys Lament,Holleton - Learys Lament,J01659,-31.918717,119.002008,Shut,Mine,Openpit,Au,Yilgarn Craton granites,0.167,2.04011976,10953.7,0.0,0.0,0.0,10953.7,M 77/643,MINING LEASE,RICHARD READ AND ASSOCIATES PTY LTD,LIVE,https://minedex.dmirs.wa.gov.au/Web/projects/details/42983411-2c6c-40db-b954-86a6ad953f99
Homeward Bound - Marble Bar,Homeward Bound - Marble Bar,J01408,-21.173946,119.755007,Shut,Mine,Shaft,Au,Callina Supersuite,0.15,3.2,15432.3,0.0,0.0,0.0,15432.3,M 45/1255,MINING LEASE,M R MILLWOOD PTY LTD,LIVE,https://minedex.dmirs.wa.gov.au/Web/projects/details/760ab1fd-b55a-4997-9435-7dc7449c9b25
Homeward Bound South,Homeward Bound South,J05555,-28.839706,121.772472,Undeveloped,Deposit,Unspecified,"Au, Ag",Eastern Goldfields Superterrane,1.442,1.2,55633.6,0.0,0.0,0.0,55633.6,P 39/5455; L 37/195,PROSPECTING LICENCE; MISCELLANEOUS LICENCE,MAGNETIC RESOURCES NL; NAVIGATOR MINING PTY LTD,LIVE; LIVE,https://minedex.dmirs.wa.gov.au/Web/projects/details/d85aaca6-d900-408f-aede-cde5ba7c47e6
Horse Well,Horse Well,J03709,-25.923637,120.718309,Undeveloped,Deposit,Unspecified,"Au, Ag",Eastern Goldfields Superterrane,8.1746,1.53701221,403956.2,0.0,0.0,0.0,403956.2,E 69/1772,EXPLORATION LICENCE,ESKAY RESOURCES PTY LTD,LIVE,https://minedex.dmirs.wa.gov.au/Web/projects/details/bfc01eb6-a676-446e-b511-4482e098607d
Horseshoe Lights,Horseshoe Lights,J00164,-25.361706,118.621311,Care and Maintenance,Mine,Openpit,"Cu, Au, Ag",Bryah Basin,10.3544,0.13458221,44802.6,0.0,0.0,0.0,44802.6,M 52/743,MINING LEASE,MURCHISON COPPER MINES PTY LTD,LIVE,https://minedex.dmirs.wa.gov.au/Web/projects/details/05e6e59d-6372-44b0-b911-abc6a8b03e30
Illaara Gold,Illaara,J05541,-29.274785,120.062981,Shut,Mine,Unspecified,"Au, Ag",Youanmi Terrane,0.0684,6.79780702,14949.1,0.0,0.0,0.0,14949.1,E 29/1050,EXPLORATION LICENCE,DREADNOUGHT (YILGARN) PTY LTD,LIVE,https://minedex.dmirs.wa.gov.au/Web/projects/details/887cf5e9-60e6-42ee-a009-4b401c369aeb
Ironstone Well,Ironstone Well,J01616,-26.840597,120.781908,Undeveloped,Deposit,Unspecified,"Au, Ag",Eastern Goldfields Superterrane,7.3863,1.1282588,267932.9,0.0,0.0,0.0,267932.9,M 53/1093,MINING LEASE,YANDAL RESOURCES LIMITED,LIVE,https://minedex.dmirs.wa.gov.au/Web/projects/details/f2e42b7d-cf9a-4e1c-a4bb-41a20d30ff82
Jasper Hills ,Jasper Hills ,J05577,-29.127987,123.039991,Proposed,Mine,Openpit,"Au, Ag",Eastern Goldfields Superterrane,5.934,1.70342096,324982.5,2.013,1.589692,102883.8,427866.3,L 39/163; M 39/185,MISCELLANEOUS LICENCE; MINING LEASE,MURRIN MURRIN OPERATIONS PTY LTD; LORD BYRON MINING PTY LTD,LIVE; LIVE,https://minedex.dmirs.wa.gov.au/Web/projects/details/9e239755-0f19-463d-8449-225b1f79e350
Jaurdi - Cammi's Creek,Jaurdi - Cammi's Creek,J04253,-30.706236,120.910014,Shut,Mine,Openpit,"Au, Ag",Eastern Goldfields Superterrane,1.018,1.3079666,42809.0,0.282,1.29716312,11760.7,54569.7,M 16/34,MINING LEASE,BEACON MINING PTY LTD,LIVE,https://minedex.dmirs.wa.gov.au/Web/projects/details/13ed870f-cd62-4538-a4e0-447e5c1cacc4
Jeffreys Find,Jeffreys Find,J00170,-31.94642,122.151147,Care and Maintenance,Mine,Openpit,"Au, Ag",Eastern Goldfields Superterrane,0.87,1.16114943,32478.6,0.0,0.0,0.0,32478.6,M 63/242,MINING LEASE,JEFFREYS FIND PTY LTD,LIVE,https://minedex.dmirs.wa.gov.au/Web/projects/details/5de234c2-9744-4d79-b449-f1400246ee99
Jerdacuttup,Jerdacuttup,J05835,-33.754546,120.208407,Proposed,Mine,Openpit,"Au, Cu, Ag, Pb, Zn",Barren Basin,5.601,0.90412426,162811.1,0.0,0.0,0.0,162811.1,M 74/176,MINING LEASE,MEDALLION METALS LIMITED,LIVE,https://minedex.dmirs.wa.gov.au/Web/projects/details/0f3aec99-a4c9-fcbe-a6ba-ba916825abfc
Johnson Range,Johnson Range,J03902,-29.7079,119.438821,Shut,Mine,Openpit,"Au, Ag",Youanmi Terrane,1.4257,2.25705899,103457.4,0.0,0.0,0.0,103457.4,M 77/1263-I,MINING LEASE,AURUMIN JOHNSON RANGE PTY LTD,LIVE,https://minedex.dmirs.wa.gov.au/Web/projects/details/7346b6e6-fb2c-457e-83f1-f169bcbf97f4
Joshtails,Joshtails,J02305,-30.816178,121.535609,Shut,Mine,Tailings storage facility,"Au, Ag",Eastern Goldfields Superterrane,0.005,1.9,305.4,0.0,0.0,0.0,305.4,P 26/4471,PROSPECTING LICENCE,"POTTS, CHRISTOPHER PETER",LIVE,https://minedex.dmirs.wa.gov.au/Web/projects/details/390a9864-9fde-4514-b864-be226aed0e8a
Jumbulyer,Jumbulyer,J04258,-28.17496,117.793439,Undeveloped,Deposit,Unspecified,"Au, Ag",Youanmi Terrane,0.07,1.8,4051.0,0.0,0.0,0.0,4051.0,M 58/359,MINING LEASE,KIRKALOCKA GOLD SPV PTY LTD,LIVE,https://minedex.dmirs.wa.gov.au/Web/projects/details/5c9fc0d1-ab97-4023-bdcd-c806c7bd776c
Jundee - Nimary,Jundee - Nimary,J01726,-26.372535,120.604113,Operating,Mine,Decline,"Au, Ag",Eastern Goldfields Superterrane,79.271,2.54085605,6475671.8,9.079,3.3645776,982107.4,7457779.2,M 53/191,MINING LEASE,NORTHERN STAR RESOURCES LTD,LIVE,https://minedex.dmirs.wa.gov.au/Web/projects/details/f981b3aa-adc7-479f-88c0-7d39bfd48bec
Jungle Well,Jungle Well,J00412,-28.408451,120.999011,Care and Maintenance,Mine,Openpit,"Au, Ag",Eastern Goldfields Superterrane,0.735,1.1,25993.8,0.0,0.0,0.0,25993.8,M 37/135,MINING LEASE,UNIQ RESOURCES LEONORA PTY LTD,LIVE,https://minedex.dmirs.wa.gov.au/Web/projects/details/39ce3785-2f2b-4b94-9168-cf7fb4c9e90d
Kalgoorlie North,Bardoc Gold,J02816,-30.33482,121.28627,Proposed,Mine,Openpit,"Au, Ag",Eastern Goldfields Superterrane,26.929,1.48065654,1281932.0,0.795,3.8,97127.3,1379059.3,M 24/870,MINING LEASE,GPM RESOURCES PTY LTD,LIVE,https://minedex.dmirs.wa.gov.au/Web/projects/details/21aaefae-167f-41e1-a8fb-3bc311078d79
Kalpini,Kalpini,J03265,-30.406004,121.946513,Proposed,Mine,Openpit,"Au, Ag",Eastern Goldfields Superterrane,1.872,2.331875,140346.5,0.0,0.0,0.0,140346.5,M 27/485,MINING LEASE,BLACK MOUNTAIN GOLD PTY LIMITED,LIVE,https://minedex.dmirs.wa.gov.au/Web/projects/details/0c9c9a10-dcbf-4175-968a-3af38b2d8146
Kambalda - St Ives,Kambalda - St Ives,J00178,-31.283029,121.673409,Operating,Mine,Decline,"Au, Ag, As",Eastern Goldfields Superterrane,23.787,3.58495397,2741660.6,28.964,3.62160268,3372483.0,6114143.6,M 15/1687,MINING LEASE,ST IVES GOLD MINING COMPANY PTY LIMITED,LIVE,https://minedex.dmirs.wa.gov.au/Web/projects/details/9af81d55-06f2-4ebf-8fac-430b8f17015f
Kambalda Gold / RNC,Kambalda,J04930,-31.242525,121.689952,Operating,Mine,Decline,"Au, Ag, Ni",Eastern Goldfields Superterrane,63.539,2.27810825,4653772.7,5.666,2.15777621,393073.2,5046845.9,M 15/1518,MINING LEASE,ST IVES GOLD MINING COMPANY PTY LIMITED,LIVE,https://minedex.dmirs.wa.gov.au/Web/projects/details/701ff27a-c801-4a08-85c1-fadaa647c4be
Kanowna - Golden Valley,Kanowna -Golden Valley,J00181,-30.570241,121.466638,Shut,Mine,Openpit,"Au, Ag",Eastern Goldfields Superterrane,108.982,2.28424052,8003630.6,24.64,1.47923701,1171841.6,9175472.2,M 24/462,MINING LEASE,NORTHERN STAR (KLV) PTY LTD,LIVE,https://minedex.dmirs.wa.gov.au/Web/projects/details/fead7be5-46c8-438d-b096-62283bd4f544
Karlawinda Gold,Karlawinda,J03488,-23.765131,120.095899,Operating,Mine,Openpit,"Au, Ag",Collier Basin,94.3,0.70848356,2147988.3,53.6,0.76212687,1313356.1,3461344.4,M 52/1070,MINING LEASE,GREENMOUNT RESOURCES PTY LTD,LIVE,https://minedex.dmirs.wa.gov.au/Web/projects/details/b1a342bc-744d-40b9-a1b0-8902985f9587
Karonie,Karonie,J05593,-31.009034,122.580996,Undeveloped,Deposit,Unspecified,"Au, Cu, Zn, Ag",Eastern Goldfields Superterrane,2.961,1.18628842,112932.5,0.0,0.0,0.0,112932.5,E 28/2575; L 28/56,EXPLORATION LICENCE; MISCELLANEOUS LICENCE,GOLDTRIBE CORPORATION PTY LTD; SILVER LAKE (INTEGRA) PTY LIMITED,LIVE; LIVE,https://minedex.dmirs.wa.gov.au/Web/projects/details/cb96f6ed-475c-4210-8256-16f788074a0f
Katanning Gold,Katanning,J00007,-33.543356,117.908152,Undeveloped,Deposit,Unspecified,"Au, Ag",Yilgarn Craton granites,68.648,1.1084489,2446436.8,37.4,1.10264706,1325862.7,3772299.5,M 70/211,MINING LEASE,AUSGOLD EXPLORATION PTY LTD,LIVE,https://minedex.dmirs.wa.gov.au/Web/projects/details/68fa4f6d-7bef-44c2-9855-cb9aaa392427
Kathleen Valley Gold / ANI,Kathleen Valley,J00329,-27.510907,120.57035,Shut,Mine,Openpit,"Au, Ag",Yilgarn Craton,0.744,2.77311828,66333.3,0.0,0.0,0.0,66333.3,M 36/375,MINING LEASE,IGO COSMOS PTY LTD,LIVE,https://minedex.dmirs.wa.gov.au/Web/projects/details/37de7a15-7d70-46d5-9ec5-08eeea9b8237
Kingston,Kingston,J01284,-28.801986,121.83671,Undeveloped,Deposit,Unspecified,Au,Eastern Goldfields Superterrane,0.018,6.0,3472.3,0.0,0.0,0.0,3472.3,M 39/127,MINING LEASE,"SELGA, MARK",LIVE,https://minedex.dmirs.wa.gov.au/Web/projects/details/f8c28180-0821-4bea-9e3a-90827e8ac3c3
Kirkalocka,Kirkalocka,J01617,-28.674922,117.761548,Care and Maintenance,Mine,Openpit,"Au, Ag",Youanmi Terrane,15.0,1.14933333,554278.1,11.0,1.1,389023.5,943301.6,M 59/234,MINING LEASE,KIRKALOCKA GOLD SPV PTY LTD,LIVE,https://minedex.dmirs.wa.gov.au/Web/projects/details/b005b467-7eff-4306-9b73-6beaa6e1714a
Kookynie / Nex Metals,Kookynie,J05659,-29.351157,121.462809,Shut,Mine,Openpit,"Au, Ag",Eastern Goldfields Superterrane,1.58,1.60886076,81727.1,0.0,0.0,0.0,81727.1,M 40/22,MINING LEASE,KYM MINING PTY LTD,LIVE,https://minedex.dmirs.wa.gov.au/Web/projects/details/aa13b349-3146-9c97-df79-0b6e6e396ff2
Kookynie East - Leonora South,Kookynie East - Leonora South,J06831,-29.379486,121.415308,Shut,Mine,Openpit,"Au, Ag",Eastern Goldfields Superterrane,0.69,2.15362319,47775.9,0.0,0.0,0.0,47775.9,M 40/117,MINING LEASE,GOLDARC RESOURCES LIMITED,LIVE,https://minedex.dmirs.wa.gov.au/Web/projects/details/7502632a-26a5-c444-984d-b3d2e0c56878
Kookynie Gold,Kookynie,J05732,-29.335388,121.466792,Undeveloped,Deposit,Unspecified,"Au, Ag",Eastern Goldfields Superterrane,0.842,4.32410926,117057.5,0.0,0.0,0.0,117057.5,M 40/362,MINING LEASE,TOJO MINERALS PTY LTD,LIVE,https://minedex.dmirs.wa.gov.au/Web/projects/details/113c3b65-8a90-1437-bda1-ef296d9e9b90
Koongie Park,Koongie Park,J00560,-18.318816,127.543207,Undeveloped,Deposit,Unspecified,"Zn, Cu, Pb, Au, Ag, Mo","Lamboo Province, Central Zone",8.93,0.15823068,45428.9,0.0,0.0,0.0,45428.9,M 80/277,MINING LEASE,KOONGIE PARK PTY LTD,LIVE,https://minedex.dmirs.wa.gov.au/Web/projects/details/30a74848-3ff8-4dec-9862-db2f9daa1c1c
Kulguddi Gold / Duketon Mining,Kulguddi,J01880,-28.508197,122.411034,Undeveloped,Deposit,Unspecified,"Au, Ag",Eastern Goldfields Superterrane,1.9,1.55,94683.8,0.0,0.0,0.0,94683.8,M 38/1291,MINING LEASE,REGIS RESOURCES LIMITED,LIVE,https://minedex.dmirs.wa.gov.au/Web/projects/details/27e37fc7-5a95-4184-af77-02d3fb67477e
Kundana - White Flag,Kundana - White Flag,J00358,-30.696097,121.224594,Undeveloped,Deposit,Unspecified,Au,Eastern Goldfields Superterrane,171.525,1.30236933,7182109.5,50.92,1.29939906,2127263.9,9309373.4,M 16/72,MINING LEASE,KUNDANA GOLD PTY LIMITED,LIVE,https://minedex.dmirs.wa.gov.au/Web/projects/details/98abdfa5-3e62-4bbb-a3a8-2ef0dcbef53a
Kundana East,EKJV,J01718,-30.735645,121.250387,Undeveloped,Deposit,Unspecified,"Au, Ag",Eastern Goldfields Superterrane,0.915,4.68131148,137714.3,0.0,0.0,0.0,137714.3,M 16/309,MINING LEASE,GILT-EDGED MINING PTY LIMITED,LIVE,https://minedex.dmirs.wa.gov.au/Web/projects/details/0323d0dd-f525-48ef-a17b-a5011c60b3ab
Kurnalpi Dryblowing / Shannon,Kurnalpi Dryblowing,J01212,-30.522556,122.243411,Shut,Mine,Dryblowing area,Au,Eastern Goldfields Superterrane,0.015,0.5,241.1,0.0,0.0,0.0,241.1,M 28/72,MINING LEASE,NORTHERN STAR (CAROSUE DAM) PTY LTD,LIVE,https://minedex.dmirs.wa.gov.au/Web/projects/details/875440ef-d68a-46c4-895b-b68636166c12
Kurnalpi Gold,Kurnalpi,J03802,-30.553653,122.227365,Undeveloped,Deposit,Unspecified,Au,Eastern Goldfields Superterrane,1.325,1.77162264,75470.6,0.0,0.0,0.0,75470.6,E 28/1749,EXPLORATION LICENCE,NORTHERN STAR (CAROSUE DAM) PTY LTD,LIVE,https://minedex.dmirs.wa.gov.au/Web/projects/details/b9a2009c-b469-4161-9f17-be880225c3fb
Lady Ida / Lamerton Geoda,Lady Ida,J06689,-30.494737,120.662244,Operating,Mine,Openpit,"Au, Ag",Eastern Goldfields Superterrane,17.035,1.11647373,611478.3,3.7764,1.12521449,136616.7,748095.0,M 16/262,MINING LEASE,GEODA PTY LTD,LIVE,https://minedex.dmirs.wa.gov.au/Web/projects/details/8f856bb0-88f4-d2fb-2eaf-2ea47c7c9e1a
Lady Julie,Lady Julie,J05641,-28.687753,122.307224,Proposed,Mine,Openpit,"Au, Ag",Eastern Goldfields Superterrane,39.1306,1.77737132,2236068.5,0.0,0.0,0.0,2236068.5,M 38/1315,MINING LEASE,MAGNETIC RESOURCES NL,LIVE,https://minedex.dmirs.wa.gov.au/Web/projects/details/f862daf4-f312-109a-e685-a94a4812df5d
Lady Susan,Lady Susan,J01692,-28.749453,121.827387,Proposed,Mine,Openpit,Au,Eastern Goldfields Superterrane,0.071,2.0071831,4581.8,0.0,0.0,0.0,4581.8,M 39/460,MINING LEASE,NIWEST LIMITED,LIVE,https://minedex.dmirs.wa.gov.au/Web/projects/details/5b6a5fa6-d710-47b3-9401-eeda0493644e
Lalla Rookh,Lalla Rookh,J00206,-21.051384,119.274216,Shut,Mine,Shaft,Au,Warrawoona  Large Igneous Province,0.278,2.12651079,19006.5,0.0,0.0,0.0,19006.5,M 45/442; L 45/166,MINING LEASE; MISCELLANEOUS LICENCE,HAOMA MINING NL; VENTUREX SULPHUR SPRINGS PTY LTD,LIVE; LIVE,https://minedex.dmirs.wa.gov.au/Web/projects/details/e08c92a7-ff75-4d47-b4be-8767de718519
Lancefield Tailings,Lancefield Tailings,J00208,-28.55772,122.370636,Shut,Mine,Tailings storage facility,"Au, Ag",Eastern Goldfields Superterrane,1.5479,1.2547193,62442.4,0.0,0.0,0.0,62442.4,M 38/37; LTT 70/3709,MINING LEASE; LICENCE TO TREAT TAILINGS,LAVERTON GOLD PTY LTD; SVENSON NOMINEES PTY LTD,LIVE; LIVE,https://minedex.dmirs.wa.gov.au/Web/projects/details/9d8ea725-7c0e-4a00-965b-fbfdf358bf8b
Larkinville,Larkinville,J05746,-31.416726,121.468211,Undeveloped,Deposit,Unspecified,"Au, Ag",Eastern Goldfields Superterrane,0.2,1.8,11574.3,0.0,0.0,0.0,11574.3,M 15/1449,MINING LEASE,ESSENTIAL METALS PTY LTD,LIVE,https://minedex.dmirs.wa.gov.au/Web/projects/details/034ed28f-41a8-282d-7fba-789acf9e5683
Laverton - Barnicoat - Karridale - Merolia / Focus,Laverton - Barnicoat - Karridale - Merolia,J00238,-28.785417,122.648014,Proposed,Mine,Openpit,"Au, Ag",Burtville Terrane,74.1063,1.66808271,3974322.9,12.6,1.33650794,541417.8,4515740.7,M 38/8,MINING LEASE,LAVERTON GOLD PTY LTD,LIVE,https://minedex.dmirs.wa.gov.au/Web/projects/details/4ca83e72-c3d5-4e0c-945f-a3c601f4deb7
Laverton Downs,Laverton Downs,J02174,-28.444128,122.471549,Undeveloped,Deposit,Unspecified,"Au, Ag",Burtville Terrane,0.032,4.5,4629.7,0.0,0.0,0.0,4629.7,M 38/1266,MINING LEASE,GOLDEN CLIFFS NL,LIVE,https://minedex.dmirs.wa.gov.au/Web/projects/details/0e9a79fe-6a5f-4739-80f6-6b82aecf3e02
Laverton Gold JV,Laverton Gold JV,J07132,-29.382583,122.368418,Shut,Mine,Openpit,"Au, Ag",Eastern Goldfields Superterrane,0.231,1.82121212,13525.8,0.0,0.0,0.0,13525.8,M 39/1099,MINING LEASE,"WILSON, WALTER SCOTT",LIVE,https://minedex.dmirs.wa.gov.au/Web/projects/details/da5e3de7-373c-eb13-2a79-7082044951b0
Lennons Find,Lennons Find,J00563,-21.355836,120.239108,Undeveloped,Deposit,Unspecified,"Zn, Pb, Ag",Warrawoona  Large Igneous Province,1.55,0.28,13953.4,0.0,0.0,0.0,13953.4,M 45/368,MINING LEASE,"FLETCHER, JOY ANN",LIVE,https://minedex.dmirs.wa.gov.au/Web/projects/details/3c9dab20-f685-432a-a0cf-5effd5d5381f
Leonora - Crawford and Gambier Lass,Leonora,J02802,-28.878056,121.58491,Proposed,Mine,Openpit,"Au, Ag",Eastern Goldfields Superterrane,3.745,1.0,120404.4,1.002,0.91,29315.7,149720.1,M 37/1202,MINING LEASE,CAVALIER RESOURCES LIMITED,LIVE,https://minedex.dmirs.wa.gov.au/Web/projects/details/1d926016-80b9-4fe3-b6bd-2b39d438fa56
Leonora / Iris,Leonora,J06780,-28.820893,121.680029,Proposed,Mine,Scraping-Detecting area,Au,Eastern Goldfields Superterrane,0.005,9.0,1446.8,0.0,0.0,0.0,1446.8,P 37/9033,PROSPECTING LICENCE,IRIS METALS LIMITED,LIVE,https://minedex.dmirs.wa.gov.au/Web/projects/details/d03924eb-dc7e-d144-0d70-50d0b414a323
Leonora / Patronus,Leonora - Cardinia,J00232,-28.667341,121.545767,Shut,Mine,Openpit,"Au, Ag",Eastern Goldfields Superterrane,20.5474,1.43767435,949746.8,2.39,1.70711297,131174.9,1080921.7,M 37/82,MINING LEASE,NAVIGATOR MINING PTY LTD,LIVE,https://minedex.dmirs.wa.gov.au/Web/projects/details/e22c92b1-d0f8-46cf-8fa3-529df64c95b5
Liberty - Indee,Liberty - Indee,J03482,-21.096425,117.847208,Undeveloped,Deposit,Unspecified,"Cu, Zn, Pb, Au, Ag",Sisters Supersuite,0.59,0.98372881,18660.3,0.5,0.88,14146.3,32806.6,M 47/1455,MINING LEASE,JUTT RESOURCES PTY LTD,LIVE,https://minedex.dmirs.wa.gov.au/Web/projects/details/1478d8d6-ad06-41a2-a8f8-6934877d5042
Linden Gold,Linden Gold,J02325,-29.376492,122.435829,Operating,Mine,Decline,"Au, Ag",Eastern Goldfields Superterrane,0.132,10.02121212,42528.9,0.391,5.64890026,71011.9,113540.8,M 39/255,MINING LEASE,SECOND FORTUNE GOLD PROJECT PTY LTD,LIVE,https://minedex.dmirs.wa.gov.au/Web/projects/details/86777438-745e-4e73-8c74-16edca176e30
Lindsays,Lindsays,J01525,-30.331503,121.69581,Care and Maintenance,Mine,Openpit,Au,Eastern Goldfields Superterrane,3.9732,1.68773533,215593.3,0.0,0.0,0.0,215593.3,M 27/169,MINING LEASE,TOP GLOBAL MINING PTY LTD,LIVE,https://minedex.dmirs.wa.gov.au/Web/projects/details/3bce559e-78d6-48de-8cf6-efdc8ab16096
Livingstone Gold,Livingstone,J02143,-25.575885,117.661179,Undeveloped,Deposit,Unspecified,"Au, Ag",Padbury Basin,2.809,1.35538626,122406.7,0.0,0.0,0.0,122406.7,E 52/3403-I,EXPLORATION LICENCE,TRILLBAR RESOURCES PTY LTD,LIVE,https://minedex.dmirs.wa.gov.au/Web/projects/details/83452ea1-49bd-4755-bfbd-f0c2b85f1d81
Maguires Reward,Maguires Reward,J05862,-27.00269,117.782915,Undeveloped,Deposit,Unspecified,"Au, Ag",Youanmi Terrane,0.3121,2.15979494,21671.9,0.0,0.0,0.0,21671.9,P 20/2318,PROSPECTING LICENCE,OZZ RESOURCES LIMITED,LIVE,https://minedex.dmirs.wa.gov.au/Web/projects/details/013dc98e-e52f-474b-0759-603187642382
Majestic North ,Majestic North ,J04387,-30.854622,121.929779,Undeveloped,Deposit,Unspecified,"Au, Ag",Eastern Goldfields Superterrane,1.375,1.14164364,50468.9,0.0,0.0,0.0,50468.9,M 25/369,MINING LEASE,FORTIFY MINING PTY LTD,LIVE,https://minedex.dmirs.wa.gov.au/Web/projects/details/715f7547-a8cf-4565-8035-e02d6871346d
Malcolm,Malcolm,J03099,-28.939897,121.503008,Shut,Mine,Unspecified,Au,Eastern Goldfields Superterrane,0.2502,6.21079137,49960.3,0.0,0.0,0.0,49960.3,M 37/1164,MINING LEASE,GOLDLAKE TWO HOLDINGS PTY LTD,LIVE,https://minedex.dmirs.wa.gov.au/Web/projects/details/f1d93382-eaf0-4175-b96a-7c1636ba6d90
Malcolm Challenger Gold - Murrin Murrin,Malcolm Challenger - Murrin Murrin,J00270,-28.899707,121.817764,Operating,Mine,Openpit,Au,Eastern Goldfields Superterrane,0.547,3.12,54869.7,0.0,0.0,0.0,54869.7,M 39/1068,MINING LEASE,KUMARINA RESOURCES PTY LTD,LIVE,https://minedex.dmirs.wa.gov.au/Web/projects/details/d28741c4-eac0-4c22-9bc6-0cc98f5e10d5
Malcolm Gold,Malcolm,J05257,-28.936891,121.511638,Undeveloped,Deposit,Unspecified,"Au, Ag",Eastern Goldfields Superterrane,0.2943,1.53261638,14501.5,0.0,0.0,0.0,14501.5,P 37/8824,PROSPECTING LICENCE,MT MALCOLM GOLD HOLDINGS PTY LTD,LIVE,https://minedex.dmirs.wa.gov.au/Web/projects/details/172b63b1-9fb2-4cbb-9eac-029d878018f8
Manayaparn,Manayaparn,J02490,-26.362417,120.948809,Undeveloped,Deposit,Unspecified,"Au, Ag",Eastern Goldfields Superterrane,6.0,1.78666667,344655.5,0.0,0.0,0.0,344655.5,E 53/1304,EXPLORATION LICENCE,NORTHERN STAR RESOURCES LTD,LIVE,https://minedex.dmirs.wa.gov.au/Web/projects/details/e53a6d71-7b11-4f2d-983d-06126f25e9e9
Mandilla,Mandilla,J02817,-31.378336,121.520113,Undeveloped,Deposit,Unspecified,"Au, Ag",Eastern Goldfields Superterrane,41.7,1.10863309,1486326.9,34.269,0.89838746,989818.5,2476145.4,M 15/633,MINING LEASE,ASTRAL RESOURCES NL,LIVE,https://minedex.dmirs.wa.gov.au/Web/projects/details/069c8fbe-b4a5-423e-ad04-55565b367ae1
Mangaroon Gold,Mangaroon,J00222,-23.867585,115.746111,Care and Maintenance,Mine,Shaft,"Au, Pb, Ag",Gascoyne Province,0.0756,11.0781746,26926.5,0.0,0.0,0.0,26926.5,M 09/175,MINING LEASE,DREADNOUGHT EXPLORATION PTY LTD,LIVE,https://minedex.dmirs.wa.gov.au/Web/projects/details/a4d7aec5-5240-416b-bf69-86fdf3258604
Marda / Southern Cross,Marda,J02854,-29.744697,119.483508,Shut,Mine,Unspecified,"Au, Ag",Youanmi Terrane,10.171,1.0459473,342029.8,0.0,0.0,0.0,342029.8,P 77/4179,PROSPECTING LICENCE,MARDA OPERATIONS PTY LTD,LIVE,https://minedex.dmirs.wa.gov.au/Web/projects/details/0fe8ae37-16c6-4f02-87e1-ce5231d35d45
Marvel Loch - Southern Cross,Marvel Loch - Southern Cross,J00226,-31.269604,119.320508,Shut,Mine,Openpit,"Au, Ag",Youanmi Terrane,18.596,3.52294795,2106280.4,6.521,3.66307315,767980.6,2874261.0,M 77/225,MINING LEASE,BARTO GOLD MINING PTY LTD,LIVE,https://minedex.dmirs.wa.gov.au/Web/projects/details/00d17898-59e9-47f7-b9ce-1ad0e5ed24d3
Matilda,Matilda,J02624,-26.611436,120.246706,Care and Maintenance,Mine,Openpit,"Au, Ag",Eastern Goldfields Superterrane,91.83,2.38267342,7034602.1,37.82,1.28474088,1562167.1,8596769.2,M 53/96,MINING LEASE,WILUNA OPERATIONS PTY LTD,LIVE,https://minedex.dmirs.wa.gov.au/Web/projects/details/5f286391-fce2-4b83-b94a-5a003b08b136
Maybell - Norseman,Maybell - Norseman,J01211,-32.367366,121.794044,Shut,Mine,Openpit,"Au, Ag",Eastern Goldfields Superterrane,1.7955,2.1206015,122415.1,0.0,0.0,0.0,122415.1,M 63/204-I,MINING LEASE,PANGOLIN RESOURCES PTY LTD,LIVE,https://minedex.dmirs.wa.gov.au/Web/projects/details/c4ca0595-864f-4f05-99bc-f36a8f838f4b
Mayday,Bardoc Gold,J01239,-30.447939,121.863798,Shut,Mine,Openpit,"Au, Ag",Eastern Goldfields Superterrane,1.734,1.5005767,83656.1,0.622,1.62,32396.3,116052.4,M 27/140,MINING LEASE,GPM RESOURCES PTY LTD,LIVE,https://minedex.dmirs.wa.gov.au/Web/projects/details/d7a3ef15-dfcd-4039-8e2f-eadbbef45e67
McGuires Reward - Beebyn West,McGuires Reward - Beebyn West,J01679,-27.004797,117.788012,Undeveloped,Deposit,Unspecified,"Au, Ag",Youanmi Terrane,0.37,3.7,44014.3,0.0,0.0,0.0,44014.3,M 20/568; P 20/2516,MINING LEASE; PROSPECTING LICENCE,OZZ RESOURCES LIMITED; OZZ RESOURCES LIMITED,PENDING; PENDING,https://minedex.dmirs.wa.gov.au/Web/projects/details/b0566e78-8f35-4cbd-b785-c91b204cde58
McPhees,McPhees,J04548,-20.998716,118.937708,Shut,Mine,Openpit,"Au, Ag",Kelly Large Igneous Province,0.396,1.57,19988.7,0.557,1.53,27399.1,47387.8,M 45/1275,MINING LEASE,PILGANGOORA OPERATIONS PTY LTD,LIVE,https://minedex.dmirs.wa.gov.au/Web/projects/details/8f82f4e8-f29d-42e5-ba99-661838c9af9c
Menzies,Menzies,J01011,-29.703376,121.02806,Proposed,Mine,Openpit,"Au, Ag",Eastern Goldfields Superterrane,14.824,1.5038748,716749.7,2.934,1.7204499,162290.3,879040.0,M 29/153,MINING LEASE,MENZIES OPERATIONAL AND MINING PTY LTD,LIVE,https://minedex.dmirs.wa.gov.au/Web/projects/details/f9246263-0c1c-4476-a3b9-dba0483ececc
Menzies / Helix,Menzies,J02333,-29.811158,121.142512,Undeveloped,Deposit,Unspecified,"Au, Ag",Eastern Goldfields Superterrane,0.085,6.0,16396.9,0.0,0.0,0.0,16396.9,E 29/1045,EXPLORATION LICENCE,KALGOORLIE NICKEL PTY LTD,LIVE,https://minedex.dmirs.wa.gov.au/Web/projects/details/2792b77f-5c26-4f40-a9f5-ac525bb473d6
Merolia - Laverton Gold,Merolia - Laverton,J04733,-28.780028,122.741712,Shut,Mine,Openpit,"Au, Ag",Burtville Terrane,0.0623,4.27704655,8566.9,0.0,0.0,0.0,8566.9,E 38/2847,EXPLORATION LICENCE,PANTHER METALS LTD,LIVE,https://minedex.dmirs.wa.gov.au/Web/projects/details/138175c8-60b4-421c-971d-dbaa82cf98a8
Minestat Gold Mining Centres,Minestat Mining Centres,J02199,-30.117851,120.583111,Shut,Mine,Unspecified,Au,Youanmi Terrane,0.169,2.55443787,13879.5,0.0,0.0,0.0,13879.5,M 30/103,MINING LEASE,CARNEGIE GOLD PTY LTD,LIVE,https://minedex.dmirs.wa.gov.au/Web/projects/details/19f0dbd4-ec61-49d3-bfdc-9619e2bf95d1
Minyari Dome,Minyari Dome,J04792,-21.381333,122.257694,Undeveloped,Deposit,Unspecified,"Au, Ag, Cu, Co",Yeneena Basin,57.6924,1.44612985,2682355.5,0.0,0.0,0.0,2682355.5,E 45/3919,EXPLORATION LICENCE,ANTIPA RESOURCES PTY LTD,LIVE,https://minedex.dmirs.wa.gov.au/Web/projects/details/a5dc8ab9-5c01-4ef4-b287-ddbbf8273e62
Mon Ami Gold,Mon Ami,J04103,-28.757311,122.505476,Undeveloped,Deposit,Unspecified,"Au, Ag",Eastern Goldfields Superterrane,1.56,1.10711538,55527.5,0.0,0.0,0.0,55527.5,M 38/1256,MINING LEASE,GREAT SOUTHERN MINING LIMITED,LIVE,https://minedex.dmirs.wa.gov.au/Web/projects/details/351949f8-555a-4fca-a7ab-70b4d2f22fb4
Montague Gold,Montague Gold,J00148,-27.398185,119.538408,Shut,Mine,Openpit,"Au, Ag",Youanmi Terrane,10.073,1.64314504,532139.1,0.0,0.0,0.0,532139.1,M 57/98,MINING LEASE,MONTAGUE GOLD PROJECT PTY LTD,LIVE,https://minedex.dmirs.wa.gov.au/Web/projects/details/7579840e-1932-4010-885a-b1ab72d7348d
Monument - Korong,Monument - Korong,J02424,-28.639168,121.96482,Undeveloped,Deposit,Unspecified,"Au, Ag",Eastern Goldfields Superterrane,3.257,1.44792754,151619.5,0.0,0.0,0.0,151619.5,E 39/2024,EXPLORATION LICENCE,MONUMENT EXPLORATION PTY LTD,LIVE,https://minedex.dmirs.wa.gov.au/Web/projects/details/3b9638f4-5948-4916-be05-dd01ae499eb9
Mosquito Creek / Nimble,Mosquito Creek,J00236,-21.733335,120.485506,Shut,Mine,Openpit,"Au, Ag",Mosquito Creek Basin,12.413,0.56774672,226580.1,0.0,0.0,0.0,226580.1,E 46/1581,EXPLORATION LICENCE,"STONE, ELDON ANDREW",PENDING,https://minedex.dmirs.wa.gov.au/Web/projects/details/6691d0bc-a2b7-4bd8-b0eb-20568af96f33
Mt Cattlin Gold / Avira Resources,Mt Cattlin / Avira,J05718,-33.545656,120.059512,Undeveloped,Deposit,Unspecified,"Au, Cu, Ag",Youanmi Terrane,0.165,3.9396,20899.0,0.0,0.0,0.0,20899.0,E 74/401-I,EXPLORATION LICENCE,GALAXY LITHIUM AUSTRALIA PTY LTD,LIVE,https://minedex.dmirs.wa.gov.au/Web/projects/details/baf23877-d54c-f3fc-5765-f5f14ba521c6
Mt Celia - Kangaroo Bore,Mt Celia - Kangaroo Bore,J00240,-29.439496,122.4654,Undeveloped,Deposit,Unspecified,"Au, Ag",Eastern Goldfields Superterrane,4.304,1.84882203,255833.7,0.0,0.0,0.0,255833.7,M 39/1145,MINING LEASE,LEGACY IRON ORE LTD,LIVE,https://minedex.dmirs.wa.gov.au/Web/projects/details/ed7e53db-67e8-4002-98b5-18b8409f6445
Mt Clement - Fairview,Mt Clement - Fairview,J06606,-22.835818,116.125587,Undeveloped,Deposit,Unspecified,"Pb, Sb, Ag, Au",Ashburton Basin,1.14,0.1,3665.2,0.0,0.0,0.0,3665.2,E 08/3214,EXPLORATION LICENCE,MARQUEE RESOURCES LIMITED,LIVE,https://minedex.dmirs.wa.gov.au/Web/projects/details/26b7f63b-9f24-f476-e64d-8919e6fd1977
Mt Clement Antimony,Mt Clement Antimony,J07156,-22.830833,116.110053,Undeveloped,Deposit,Unspecified,"Au, Sb, Cu, Ag, Pb",Ashburton Basin,2.605,0.62610365,52437.8,0.0,0.0,0.0,52437.8,M 08/192,MINING LEASE,BLACK CAT (PAULSENS) PTY LTD,LIVE,https://minedex.dmirs.wa.gov.au/Web/projects/details/d1971ec5-736e-25c8-05bc-8aa7e240737c
Mt Clifford Kettle Alluvial Operations,Mt Clifford,J06385,-28.462668,121.05871,Shut,Mine,Scraping-Detecting area,"Au, Ag",Eastern Goldfields Superterrane,0.109,3.7,12966.4,0.0,0.0,0.0,12966.4,M 37/182,MINING LEASE,"BIGGS, GLEN NEIL",LIVE,https://minedex.dmirs.wa.gov.au/Web/projects/details/e17b8b84-8f91-5caa-ef0a-398fbc593869
Mt Dimer,Mt Dimer,J01033,-30.399426,119.813422,Shut,Mine,Openpit,"Au, Ag",Yilgarn Craton granites,0.44,3.63431818,51412.2,0.056,5.3,9542.3,60954.5,M 77/427,MINING LEASE,BEACON MINING PTY LTD,LIVE,https://minedex.dmirs.wa.gov.au/Web/projects/details/d4124700-188a-4fa5-8f43-e9cff94f9f40
Mt Dimer / Taipan,Mt Dimer,J01671,-30.390636,119.895808,Operating,Mine,Openpit,"Au, Ag",Youanmi Terrane,0.7227,2.06799917,48050.6,0.0,0.0,0.0,48050.6,M 77/515,MINING LEASE,OZ GOLD GROUP PTY LTD,LIVE,https://minedex.dmirs.wa.gov.au/Web/projects/details/e2a45493-649e-4ed9-af61-f77cc85b4ca4
Mt Dockrell Gold,Mt Dockrell,J00414,-18.842716,127.203211,Shut,Mine,Openpit,Au,"Lamboo Province, Eastern Zone",0.324,0.69135802,7201.8,0.0,0.0,0.0,7201.8,E 80/4542-I,EXPLORATION LICENCE,STATE RESOURCES PTY LTD,LIVE,https://minedex.dmirs.wa.gov.au/Web/projects/details/5281693d-8847-4ba5-9f4d-b2927608c256
Mt Edwards Nickel,Mt Edwards,J02592,-31.502837,121.574809,Undeveloped,Deposit,Unspecified,"Ni, Cu, PGE",Eastern Goldfields Superterrane,0.959,0.16,4933.2,0.0,0.0,0.0,4933.2,M 15/94,MINING LEASE,WYLOO KAMBALDA PTY LTD,LIVE,https://minedex.dmirs.wa.gov.au/Web/projects/details/9daea1e3-2c60-4eaf-b712-b6144d02eaea
Mt Eureka Gold,Mt Eureka,J03271,-26.604886,121.537112,Undeveloped,Deposit,Unspecified,"Au, Ag",Eastern Goldfields Superterrane,1.5868,1.23520544,63016.1,0.0,0.0,0.0,63016.1,E 53/1299,EXPLORATION LICENCE,CULLEN EXPLORATION PTY LIMITED,LIVE,https://minedex.dmirs.wa.gov.au/Web/projects/details/a1599dc5-e263-4276-905e-606be7e5b6d7
Mt Fisher Gold,Mt Fisher,J04063,-26.873846,121.41988,Undeveloped,Deposit,Unspecified,"Au, Ag",Eastern Goldfields Superterrane,1.9324,2.42394432,150594.8,0.0,0.0,0.0,150594.8,E 53/1061,EXPLORATION LICENCE,ROX (MT FISHER) PTY LTD,LIVE,https://minedex.dmirs.wa.gov.au/Web/projects/details/040bc47f-9096-4b47-b13b-21e635ceacbb
Mt Forrest - Bulga Downs Gold,Mt Forrest - Bulga Downs,J02185,-28.693397,119.960612,Undeveloped,Deposit,Unspecified,"Au, Ag",Youanmi Terrane,0.4,2.8,36008.8,0.0,0.0,0.0,36008.8,M 29/257-I,MINING LEASE,YILGIRON PTY LTD,LIVE,https://minedex.dmirs.wa.gov.au/Web/projects/details/7571bbcd-fa15-4ac2-843c-9239129892d9
Mt Gibson Gold,Mt Gibson,J00245,-29.782349,117.168027,Proposed,Mine,Openpit,"Au, Ag",Yilgarn Craton granites,152.0,0.96375,4709756.0,94.8,0.88481013,2696800.7,7406556.7,M 59/772,MINING LEASE,CRIMSON METALS PTY LTD,LIVE,https://minedex.dmirs.wa.gov.au/Web/projects/details/c0901c6e-7996-4c94-a3fa-9432a0f7477d
Mt Henry - Norseman,Mt Henry - Norseman,J01306,-32.412908,121.782512,Proposed,Mine,Openpit,"Au, Ag",Eastern Goldfields Superterrane,24.501,1.16334639,916396.2,11.694,1.27147768,478037.8,1394434.0,M 63/516-I,MINING LEASE,KARORA (HIGGINSVILLE) PTY LTD,LIVE,https://minedex.dmirs.wa.gov.au/Web/projects/details/82d67102-8174-478c-9601-5bad45f8a18f
Mt Holland Gold / Kidman,Mt Holland,J00106,-32.146282,119.757826,Proposed,Mine,Decline,Au,Youanmi Terrane,15.322,1.94588892,958570.2,0.0,0.0,0.0,958570.2,M 77/1065,MINING LEASE,MONTAGUE RESOURCES AUSTRALIA PTY LTD,LIVE,https://minedex.dmirs.wa.gov.au/Web/projects/details/24becfe3-cea0-44e5-98da-b686b33829e4
Mt Ida Gold,Mt Ida,J00430,-29.097557,120.46551,Proposed,Mine,Unspecified,"Au, Cu, Ag",Eastern Goldfields Superterrane,11.831,3.05608148,1162456.8,0.0,0.0,0.0,1162456.8,M 29/2,MINING LEASE,MT IDA LITHIUM PTY LTD,LIVE,https://minedex.dmirs.wa.gov.au/Web/projects/details/86f293b2-93b8-4571-9b34-f8ca7c34b7b8
Mt Ida South,Mt Ida South,J04342,-29.194124,120.530331,Undeveloped,Deposit,Unspecified,"Au, Ag",Eastern Goldfields Superterrane,4.135,1.12720677,149854.4,0.3,2.519,24296.3,174150.7,M 29/441; L 29/139; L 29/178,MINING LEASE; MISCELLANEOUS LICENCE; MISCELLANEOUS LICENCE,AURENNE MIT PTY LTD; AURENNE MIT PTY LTD; AURENNE MIT PTY LTD,LIVE; LIVE; LIVE,https://minedex.dmirs.wa.gov.au/Web/projects/details/ce9cea00-bff0-4fc3-9700-b7008ab51cee
Mt Jumbo,Mt Jumbo,J04863,-28.771373,122.333245,Undeveloped,Deposit,Unspecified,"Au, Ag",Eastern Goldfields Superterrane,2.316,1.13962435,84857.6,0.0,0.0,0.0,84857.6,P 38/4319,PROSPECTING LICENCE,MAGNETIC RESOURCES NL,LIVE,https://minedex.dmirs.wa.gov.au/Web/projects/details/58e53732-4e83-41f5-8c50-bb97bf51af56
Mt Magnet,Mt Magnet,J00156,-28.074872,117.781685,Operating,Mine,Openpit,"Au, Ag",Youanmi Terrane,82.398,1.57999587,4185651.4,14.785,1.12485627,534698.3,4720349.7,M 58/79,MINING LEASE,MT MAGNET GOLD PTY LTD,LIVE,https://minedex.dmirs.wa.gov.au/Web/projects/details/e74ed4d6-aff7-40f2-9f89-2e4e50ca0f03
Mt McClure / Yandal,Mt McClure,J05527,-27.514745,120.940913,Shut,Mine,Openpit,"Au, Ag",Eastern Goldfields Superterrane,3.371,1.69685553,183905.2,0.0,0.0,0.0,183905.2,M 36/691,MINING LEASE,YANDAL RESOURCES LIMITED,LIVE,https://minedex.dmirs.wa.gov.au/Web/projects/details/ea1fde9b-b174-497c-98b2-a7fdd0082681
Mt Monger / Mt Monger Resources,Mt Monger,J04799,-31.057806,122.056915,Proposed,Mine,Openpit,"Au, Ag",Eastern Goldfields Superterrane,0.166,2.19759036,11728.6,0.0,0.0,0.0,11728.6,P 25/2490,PROSPECTING LICENCE,MT MONGER MINERALS PTY LTD,LIVE,https://minedex.dmirs.wa.gov.au/Web/projects/details/16e20f58-f2a9-437a-9cd7-4f09c1be9de8
Mt Monger North,Mt Monger North,J05440,-31.005518,121.810648,Undeveloped,Deposit,Unspecified,"Au, Cu, Ag",Eastern Goldfields Superterrane,0.2046,2.59,17037.1,0.0,0.0,0.0,17037.1,P 26/4142,PROSPECTING LICENCE,CASCADE RESOURCES PTY LTD,LIVE,https://minedex.dmirs.wa.gov.au/Web/projects/details/ee40898a-cb48-48a3-881c-6a5d9946f91e
Mt Morgans,Mt Morgans,J00256,-28.757423,122.081123,Care and Maintenance,Mine,Decline,"Au, Ag",Eastern Goldfields Superterrane,42.51,1.49602446,2044655.9,15.2,1.16973684,571639.4,2616295.3,M 39/228,MINING LEASE,MT MORGANS WA MINING PTY LTD,LIVE,https://minedex.dmirs.wa.gov.au/Web/projects/details/b356e743-6818-4832-a082-8fe92201548a
Mt Mulcahy,Mt Mulcahy,J00603,-27.055727,117.697207,Undeveloped,Deposit,Unspecified,"Cu, Zn, Co, Ag, Au",Youanmi Terrane,0.647232,0.21785357,4533.3,0.0,0.0,0.0,4533.3,E 20/931,EXPLORATION LICENCE,SCORPION MINERALS LIMITED,LIVE,https://minedex.dmirs.wa.gov.au/Web/projects/details/5f29e476-9f7f-4fe0-8a46-d879df4112c4
Mt Mulgine Gold,Mt Mulgine,J00832,-29.169651,116.968027,Care and Maintenance,Mine,Openpit,Au,Youanmi Terrane,5.906,1.05739925,200781.1,0.0,0.0,0.0,200781.1,M 59/425-I,MINING LEASE,MINJAR GOLD PTY LTD,LIVE,https://minedex.dmirs.wa.gov.au/Web/projects/details/2c76a032-1c40-4160-9b53-47d6b52dfa2d
Mt Mulgine Tungsten,Mt Mulgine,J02784,-29.172054,116.961847,Undeveloped,Deposit,Unspecified,"W, Mo, Au, Ag",Youanmi Terrane,247.0,0.12834008,1019177.2,135.0,0.12,520841.3,1540018.5,M 59/425-I,MINING LEASE,MINJAR GOLD PTY LTD,LIVE,https://minedex.dmirs.wa.gov.au/Web/projects/details/6f8e37af-8488-4627-9e52-52ff44cdd657
Mt Newman Gold,Mt Newman,J01860,-28.483387,121.076112,Undeveloped,Deposit,Unspecified,"Au, Ag",Eastern Goldfields Superterrane,0.14,5.0,22505.5,0.0,0.0,0.0,22505.5,M 37/599,MINING LEASE,GENESIS MINERALS (LEONORA) PTY LTD,LIVE,https://minedex.dmirs.wa.gov.au/Web/projects/details/f663d992-263e-498b-9d18-94c1ca17e1d2
Mt Palmer / Aurumin,Mt Palmer Alluvials,J04849,-31.409522,119.686274,Care and Maintenance,Infrastructure,Tailings storage facility,Au,Youanmi Terrane,0.0985,0.63,1995.1,0.0,0.0,0.0,1995.1,M 77/406-I,MINING LEASE,AURUMIN MT PALMER PTY LTD,LIVE,https://minedex.dmirs.wa.gov.au/Web/projects/details/7e37fdb2-ce6e-422a-9ebe-4941c39df5ae
Mt Stirling / Asra - Leonora North,Mt Stirling - Leonora North,J04654,-28.597354,121.073392,Undeveloped,Deposit,Unspecified,"Au, Ag",Eastern Goldfields Superterrane,2.747,1.72162359,152050.3,0.0,0.0,0.0,152050.3,M 37/1306,MINING LEASE,"BIGGS, GLEN NEIL",LIVE,https://minedex.dmirs.wa.gov.au/Web/projects/details/f71f727a-bea2-45d6-9020-947ba9892375
Mt York Gold,Mt York,J00167,-21.108961,118.901188,Shut,Mine,Openpit,"Au, Ag",Pilbara Craton,49.24,1.02336312,1620086.6,0.0,0.0,0.0,1620086.6,L 45/105; M 45/1306,MISCELLANEOUS LICENCE; MINING LEASE,ALBEMARLE WODGINA PTY LTD; MT YORK OPERATIONS PTY LTD,LIVE; LIVE,https://minedex.dmirs.wa.gov.au/Web/projects/details/e1a2351c-519c-4454-b6f4-27405a6a7528
Mt York Gold / Pilbara Minerals,Pilbara Minerals,J05730,-21.09112,118.903039,Shut,Mine,Openpit,"Au, Ag",Kelly Large Igneous Province,0.039,1.25615385,1575.1,0.146,1.86972603,8776.5,10351.6,L 45/396; M 45/78; L 45/105,MISCELLANEOUS LICENCE; MINING LEASE; MISCELLANEOUS LICENCE,PILGANGOORA OPERATIONS PTY LTD; PILGANGOORA OPERATIONS PTY LTD; ALBEMARLE WODGINA PTY LTD,LIVE; LIVE; LIVE,https://minedex.dmirs.wa.gov.au/Web/projects/details/b1fbe6aa-c45e-cdb6-64d0-da5f2ca1099a
Mugga King,Mugga King,J01361,-28.702634,116.24105,Undeveloped,Deposit,Unspecified,Au,Youanmi Terrane,0.255,2.8,22955.6,0.0,0.0,0.0,22955.6,E 59/1242-I,EXPLORATION LICENCE,GULLEWA GOLD PROJECT PTY LTD,LIVE,https://minedex.dmirs.wa.gov.au/Web/projects/details/85e57046-d74e-43b7-b528-cc131a28a397
Mugga King Tailings,Mugga King Tailings,J00926,-28.703364,116.241853,Shut,Infrastructure,Tailings storage facility,Au,Youanmi Terrane,0.005,1.75,281.3,0.0,0.0,0.0,281.3,E 59/1242-I,EXPLORATION LICENCE,GULLEWA GOLD PROJECT PTY LTD,LIVE,https://minedex.dmirs.wa.gov.au/Web/projects/details/f29f8ea0-1409-44cc-a532-39f68b50b364
Mulgabbie North,Mulgabbie North,J02417,-30.149476,122.397013,Undeveloped,Deposit,Unspecified,"Au, Ag",Eastern Goldfields Superterrane,11.638,0.77985908,291799.8,0.0,0.0,0.0,291799.8,L 31/38; M 28/240,MISCELLANEOUS LICENCE; MINING LEASE,NORTHERN STAR (CAROSUE DAM) PTY LTD; OZAURUM MINES PTY LTD,LIVE; LIVE,https://minedex.dmirs.wa.gov.au/Web/projects/details/47c081b0-c396-4ff5-a160-d25c92e7e6b0
Mulwarrie Central,Mulwarrie Central,J00268,-30.001446,120.56251,Shut,Mine,Openpit,"Au, Ag",Youanmi Terrane,2.984,3.55743968,341292.5,0.0,0.0,0.0,341292.5,M 30/119,MINING LEASE,ADMIRAL GOLD PTY LTD,LIVE,https://minedex.dmirs.wa.gov.au/Web/projects/details/f1cf8bfc-532e-41f4-9dee-938d63322723
Munni Munni Platinum - Pinderi Hills,Munni Munni,J00820,-21.120356,116.828779,Undeveloped,Deposit,Unspecified,"PGE, Pt, Pd, Rh, Au, Cu, Ni",Sisters Supersuite,23.6,0.24745763,187760.1,0.0,0.0,0.0,187760.1,M 47/124,MINING LEASE,ALIEN METALS AUSTRALIA PTY LTD,LIVE,https://minedex.dmirs.wa.gov.au/Web/projects/details/c3b95c60-722c-4ab5-89f3-a5322975173b
Munro Bore,Munro Bore,J03053,-27.074446,118.457853,Undeveloped,Deposit,Unspecified,Au,Youanmi Terrane,0.27,1.6,13889.1,0.0,0.0,0.0,13889.1,M 51/338,MINING LEASE,WANBANNA PTY LTD,LIVE,https://minedex.dmirs.wa.gov.au/Web/projects/details/39b7630f-d76e-4e44-b692-309510ac4040
Murchison / Monument,Murchison,J02772,-27.050408,118.4583,Care and Maintenance,Mine,Openpit,"Au, Ag",Yilgarn Craton granites,15.9412,1.55155296,795203.1,0.0,0.0,0.0,795203.1,M 51/117,MINING LEASE,MONUMENT MURCHISON PTY LTD,LIVE,https://minedex.dmirs.wa.gov.au/Web/projects/details/ce4eddeb-a7d6-42d6-9f85-2ba75ddac8f7
Murchison / Westgold,Murchison,J00347,-27.486686,118.116808,Shut,Mine,Openpit,Au,Youanmi Terrane,10.345,2.02746738,674333.6,4.576,1.11280813,163718.1,838051.7,M 20/55,MINING LEASE,BIG BELL GOLD OPERATIONS PTY LTD,LIVE,https://minedex.dmirs.wa.gov.au/Web/projects/details/78d6d178-d01c-4c10-88bf-7e949215fc95
Murchison Gold - Andy Well - Gnaweeda,Murchison,J03245,-26.325496,118.78576,Operating,Mine,Openpit,"Au, Ag",Youanmi Terrane,12.95,2.95830116,1231693.3,3.96,3.10858586,395775.1,1627468.4,M 51/882,MINING LEASE,ANDY WELL MINING PTY LTD,LIVE,https://minedex.dmirs.wa.gov.au/Web/projects/details/4f2fb640-a232-4ff2-b566-15e9ce2613f7
Murchison South,Murchison South,J01505,-29.25077,117.687765,Undeveloped,Deposit,Unspecified,"Au, Ag",Youanmi Terrane,0.753,2.74847278,66539.1,0.0,0.0,0.0,66539.1,M 59/769,MINING LEASE,CERVANTES GOLD PTY LTD,LIVE,https://minedex.dmirs.wa.gov.au/Web/projects/details/f4a4bf39-e66e-4e4d-9215-8eb60a502993
Nanadie Well,Nanadie Well,J03026,-27.160156,118.956153,Undeveloped,Deposit,Unspecified,"Cu, Au, Ni, Co, PGE",Youanmi Terrane,40.4,0.1,129888.8,0.0,0.0,0.0,129888.8,M 51/887,MINING LEASE,SOLSTICE MINERALS LIMITED,LIVE,https://minedex.dmirs.wa.gov.au/Web/projects/details/c3a614f9-a26b-4bb5-864f-33f6fff96fa3
New Bulong - Boundary - Kal East Gold Project,New Bulong - Kal East,J01837,-30.729082,121.775318,Operating,Mine,Openpit,"Au, Ag",Eastern Goldfields Superterrane,3.548,2.65760993,303155.4,0.704,2.24723011,50864.0,354019.4,M 25/24,MINING LEASE,BLACK CAT (KAL EAST) PTY LTD,LIVE,https://minedex.dmirs.wa.gov.au/Web/projects/details/9339136b-48c0-4fb3-9085-f47a20488525
New Mexico,New Mexico,J01007,-30.307904,120.958256,Care and Maintenance,Mine,Openpit,Au,Eastern Goldfields Superterrane,0.007,12.0,2700.7,0.0,0.0,0.0,2700.7,M 24/241,MINING LEASE,"FORREST, MAXWELL WILLIAM PETER",LIVE,https://minedex.dmirs.wa.gov.au/Web/projects/details/f97f3c75-98da-4d39-b65e-e80027c84e71
Newington Gold,Newfield,J02524,-30.494935,118.891413,Shut,Mine,Shaft,"Au, Ag",Youanmi Terrane,0.1473,8.99769179,42611.3,0.0,0.0,0.0,42611.3,M 77/422,MINING LEASE,MIDAS MINERALS (NEWINGTON) PTY LTD,LIVE,https://minedex.dmirs.wa.gov.au/Web/projects/details/baf0aa9d-af21-49c9-b628-35c17d134b1f
Nimbus,Nimbus,J02021,-30.788363,121.648132,Proposed,Mine,Openpit,"Ag, Zn, Pb, Au",Eastern Goldfields Superterrane,12.0896,0.20028156,77847.3,0.0,0.0,0.0,77847.3,M 26/490,MINING LEASE,KALGOORLIE ORE TREATMENT COMPANY PTY LTD,LIVE,https://minedex.dmirs.wa.gov.au/Web/projects/details/f42c3839-9ea9-47bd-b992-4cae8629f5fa
Norseman / Accent,Norseman,J00990,-32.264787,121.805613,Undeveloped,Deposit,Unspecified,Au,Eastern Goldfields Superterrane,1.381,1.56476466,69475.7,0.0,0.0,0.0,69475.7,M 63/657,MINING LEASE,ACCENT RESOURCES NL,LIVE,https://minedex.dmirs.wa.gov.au/Web/projects/details/f51d961f-940d-419d-a1fc-82179aaaaace
Norseman / Galileo,Norseman,J05393,-32.095663,121.644441,Proposed,Mine,Openpit,"Co, Ni",Eastern Goldfields Superterrane,17.48,4.497e-05,25.3,0.0,0.0,0.0,25.3,M 63/671,MINING LEASE,NORSEMAN RESOURCES PTY LTD,LIVE,https://minedex.dmirs.wa.gov.au/Web/projects/details/c9bec26b-fc86-45d5-92b9-69b0ef01da7b
North Ironcap,Northcap,J03285,-32.359815,119.684206,Undeveloped,Deposit,Unspecified,Au,Youanmi Terrane,2.412,1.37,106240.1,0.0,0.0,0.0,106240.1,M 77/544,MINING LEASE,MYAMBA MINERALS PTY LTD,LIVE,https://minedex.dmirs.wa.gov.au/Web/projects/details/454fa15f-65ba-4563-8cb8-563e8c79c870
North Kanowna Star,Bardoc Gold,J01436,-30.474214,121.550311,Undeveloped,Deposit,Unspecified,"Au, Ag",Eastern Goldfields Superterrane,0.716,1.36578212,31440.2,0.0,0.0,0.0,31440.2,M 27/102,MINING LEASE,GPM RESOURCES PTY LTD,LIVE,https://minedex.dmirs.wa.gov.au/Web/projects/details/159a4c08-ea8b-46ec-b104-ee6e366b28c2
North Monger - Kal East Gold Project,Kal East,J02818,-30.896363,121.939026,Operating,Mine,Openpit,"Au, Ag",Yilgarn Craton granites,16.868,1.92890088,1046077.7,2.6711,2.0254764,173943.3,1220021.0,M 25/350,MINING LEASE,BLACK CAT (KAL EAST) PTY LTD,LIVE,https://minedex.dmirs.wa.gov.au/Web/projects/details/2ccd818d-012f-4e87-aabc-58f25b1c16c5
North Shaw,North Shaw,J00282,-21.325113,119.365872,Shut,Mine,Openpit,"Au, Ag",Warrawoona  Large Igneous Province,0.004,5.0,643.0,0.0,0.0,0.0,643.0,E 45/5231,EXPLORATION LICENCE,HAOMA MINING NL,LIVE,https://minedex.dmirs.wa.gov.au/Web/projects/details/1ecee86a-8e73-42ef-8aa6-9e6ffc93a05b
North Widgiemooltha Gold / Mincor,North Widgiemooltha,J04876,-31.499646,121.563043,Care and Maintenance,Mine,Openpit,"Au, Ag",Eastern Goldfields Superterrane,4.055,1.43398274,186949.9,0.094,2.10212766,6353.0,193302.9,M 15/48,MINING LEASE,WYLOO KAMBALDA PTY LTD,LIVE,https://minedex.dmirs.wa.gov.au/Web/projects/details/e1a0642a-3ab5-4214-82c7-47b969d55f02
Nullagine / Millenium,Nullagine,J01913,-21.967105,120.12051,Care and Maintenance,Mine,Openpit,"Au, Ag",Mosquito Creek Basin,23.3395,1.54384027,1158468.8,5.1221,1.53133285,252178.5,1410647.3,M 46/186,MINING LEASE,MILLENNIUM MINERALS PTY LTD,LIVE,https://minedex.dmirs.wa.gov.au/Web/projects/details/845995d1-b48c-4ebd-ad84-83d408c6ce07
Old Project Sites (no tenements) for Atlas,Old Project Sites (no tenements) for Atlas,J04587,-28.702516,120.896807,Undeveloped,Deposit,Unspecified,Cali,Yilgarn Craton granites,0.06,3.0,5787.1,0.0,0.0,0.0,5787.1,,,,,https://minedex.dmirs.wa.gov.au/Web/projects/details/4c81e3db-e1fa-4f6a-8b76-22b0ca741829
Paddington - Mt Pleasant,Paddington - Mt Pleasant,J00292,-30.40777,121.397653,Operating,Mine,Openpit,Au,Yilgarn Craton granites,327.905,1.14,12018307.8,125.989,0.72,2916456.9,14934764.7,M 24/564,MINING LEASE,PADDINGTON GOLD PTY LIMITED,LIVE,https://minedex.dmirs.wa.gov.au/Web/projects/details/33445e63-e81c-4960-ab7b-d3d528b036f3
Panton,Panton,J00819,-17.751516,127.831605,Proposed,Mine,Decline,"Pt, Pd, Au, Ni, Cu, Co","Lamboo Province, Central Zone",92.8,0.1,298358.5,0.0,0.0,0.0,298358.5,M 80/105,MINING LEASE,PANTON SILL PTY LTD,LIVE,https://minedex.dmirs.wa.gov.au/Web/projects/details/ea842d9e-6ddd-43df-8ed4-cb459c9e19ee
Parker Range - Burbidge,Parker Range - Burbidge,J03069,-31.573456,119.568204,Undeveloped,Deposit,Unspecified,"Au, Ag",Youanmi Terrane,0.2965,1.67190556,15937.7,0.0,0.0,0.0,15937.7,M 77/766-I,MINING LEASE,BARTO GOLD MINING PTY LTD,LIVE,https://minedex.dmirs.wa.gov.au/Web/projects/details/eaa6ebae-6f65-4717-8c4c-18e4d535b0b4
Parker Range - Olga Rocks,Parker Range - Olga Rocks,J01053,-31.613838,119.595498,Operating,Mine,Openpit,"Au, Ag",Youanmi Terrane,1.3894,2.27460774,101607.1,0.0,0.0,0.0,101607.1,M 77/657-I,MINING LEASE,AURENNE PARKER RANGE PTY LTD,LIVE,https://minedex.dmirs.wa.gov.au/Web/projects/details/7fbb99d5-36c6-4568-b0e1-3ef8995d368a
Parks Reef,Parks Reef,J00817,-26.845009,117.739175,Undeveloped,Deposit,Unspecified,"PGE, Pt, Pd, Au, Cu, Ir",Youanmi Terrane,243.0,0.07728395,603790.1,0.0,0.0,0.0,603790.1,M 51/875-I,MINING LEASE,PODIUM MINERALS LIMITED,LIVE,https://minedex.dmirs.wa.gov.au/Web/projects/details/4169f52d-bbc7-4006-b2bc-7d7e49b2a69b
Paterson / Greatland Resources,Paterson,J05392,-21.727803,122.640676,Under Development,Mine,Decline,"Au, Cu, Ag",Anketell Shelf,132.0,1.63106061,6922045.7,38.5,2.63,3255419.1,10177464.8,M 45/1287,MINING LEASE,GREATLAND PTY LTD,LIVE,https://minedex.dmirs.wa.gov.au/Web/projects/details/ce48b6c6-8d8f-4da0-9087-d742b463f4bb
Paterson / Rio Tinto,Paterson,J05463,-20.721487,121.74281,Undeveloped,Deposit,Unspecified,"Cu, Au, Ag",Anketell Shelf,741.0,0.33495277,7979803.7,0.0,0.0,0.0,7979803.7,E 45/4833; L 45/552,EXPLORATION LICENCE; MISCELLANEOUS LICENCE,RIO TINTO WINU PTY LIMITED; RIO TINTO WINU PTY LIMITED,LIVE; LIVE,https://minedex.dmirs.wa.gov.au/Web/projects/details/1d73e5c2-c6eb-45df-aae4-a266e0254710
Paulsens,Paulsens,J00242,-22.836168,116.123344,Undeveloped,Deposit,Unspecified,"Sb, Pb, Au, Ag",Ashburton Basin,3.343,4.5625187,490378.6,0.63,4.32952381,87694.2,578072.8,M 08/193,MINING LEASE,BLACK CAT (PAULSENS) PTY LTD,LIVE,https://minedex.dmirs.wa.gov.au/Web/projects/details/54a68213-7905-4511-bdfb-0edaa906f64e
Peak Hill / Aragon,Peak Hill,J00302,-25.636735,118.717113,Shut,Mine,Openpit,"Au, Ag","Yilgarn Craton, Marymia Inlier",6.497,1.76583346,368852.8,1.122,1.95,70342.5,439195.3,M 52/35,MINING LEASE,ARAGON RESOURCES PTY LTD,LIVE,https://minedex.dmirs.wa.gov.au/Web/projects/details/592e1c11-832b-4ffc-89bd-d6f1a1ba7ade
Penny Gold,Penny,J05525,-28.853313,118.810258,Operating,Mine,Decline,"Au, Ag",Youanmi Terrane,0.2077,16.42667309,109692.4,0.26,8.4,70217.1,179909.5,M 57/180,MINING LEASE,PENNY OPERATIONS PTY LTD,LIVE,https://minedex.dmirs.wa.gov.au/Web/projects/details/7c8dd2a5-d09a-47c3-9e27-630449785da5
Pennys Find,Pennys Find,J01376,-30.53085,121.873865,Proposed,Mine,Decline,"Au, Ag",Eastern Goldfields Superterrane,0.428,4.5663785,62835.6,0.3283,3.2,33776.2,96611.8,M 27/156,MINING LEASE,BLACK MOUNTAIN GOLD PTY LIMITED,LIVE,https://minedex.dmirs.wa.gov.au/Web/projects/details/ff4c4e5e-7574-4992-a862-d7ec3943a30a
